{"type":"FeatureCollection","features":[{"type":"Feature","properties":{"RaidDates":789,"RaidCentury":700,"RaidLocation":"Northumberland, England","DanesRaid_700":1,"DanesRaid_800":0,"DanesRaid_900":0,"DanesRaid_1000":0},"geometry":{"type":"Point","coordinates":[-2.0784,55.2083]}},{"type":"Feature","properties":{"RaidDates":"793, 875","RaidCentury":700,"RaidLocation":"Lindisfarne, England","DanesRaid_700":1,"DanesRaid_800":1,"DanesRaid_900":0,"DanesRaid_1000":0},"geometry":{"type":"Point","coordinates":[-1.3747,54.9133]}},{"type":"Feature","properties":{"RaidDates":"793, 845","RaidCentury":700,"RaidLocation":"Hamburg, Germany","DanesRaid_700":1,"DanesRaid_800":1,"DanesRaid_900":0,"DanesRaid_1000":0},"geometry":{"type":"Point","coordinates":[9.9937,53.5511]}},{"type":"Feature","properties":{"RaidDates":"793, 835","RaidCentury":700,"RaidLocation":"Friesland, Netherlands","DanesRaid_700":1,"DanesRaid_800":1,"DanesRaid_900":0,"DanesRaid_1000":0},"geometry":{"type":"Point","coordinates":[5.7818,53.1642]}},{"type":"Feature","properties":{"RaidDates":799,"RaidCentury":700,"RaidLocation":"Noirmoutier, France","DanesRaid_700":1,"DanesRaid_800":0,"DanesRaid_900":0,"DanesRaid_1000":0},"geometry":{"type":"Point","coordinates":[-2.2471,47.0011]}},{"type":"Feature","properties":{"RaidDates":799,"RaidCentury":700,"RaidLocation":"Aquitaine, France","DanesRaid_700":1,"DanesRaid_800":0,"DanesRaid_900":0,"DanesRaid_1000":0},"geometry":{"type":"Point","coordinates":[-0.2996,44.7002]}},{"type":"Feature","properties":{"RaidDates":799,"RaidCentury":700,"RaidLocation":"Francia, France","DanesRaid_700":1,"DanesRaid_800":0,"DanesRaid_900":0,"DanesRaid_1000":0},"geometry":{"type":"Point","coordinates":[2.2137,46.2276]}},{"type":"Feature","properties":{"RaidDates":802,"RaidCentury":800,"RaidLocation":"Wessex, England","DanesRaid_700":0,"DanesRaid_800":1,"DanesRaid_900":0,"DanesRaid_1000":0},"geometry":{"type":"Point","coordinates":[-2.7185,51.1474]}},{"type":"Feature","properties":{"RaidDates":"810, 834, 836, 837","RaidCentury":800,"RaidLocation":"Frisia, Netherlands","DanesRaid_700":0,"DanesRaid_800":4,"DanesRaid_900":0,"DanesRaid_1000":0},"geometry":{"type":"Point","coordinates":[5.7818,53.1642]}},{"type":"Feature","properties":{"RaidDates":"834, 835, 836, 837","RaidCentury":800,"RaidLocation":"Dorestad, Netherlands","DanesRaid_700":0,"DanesRaid_800":4,"DanesRaid_900":0,"DanesRaid_1000":0},"geometry":{"type":"Point","coordinates":[5.3384,51.9756]}},{"type":"Feature","properties":{"RaidDates":"835, 855","RaidCentury":800,"RaidLocation":"Isle of Sheppey, England","DanesRaid_700":0,"DanesRaid_800":2,"DanesRaid_900":0,"DanesRaid_1000":0},"geometry":{"type":"Point","coordinates":[0.8365,51.3965]}},{"type":"Feature","properties":{"RaidDates":836,"RaidCentury":800,"RaidLocation":"Antwerp, Belgium","DanesRaid_700":0,"DanesRaid_800":1,"DanesRaid_900":0,"DanesRaid_1000":0},"geometry":{"type":"Point","coordinates":[4.4025,51.2194]}},{"type":"Feature","properties":{"RaidDates":836,"RaidCentury":800,"RaidLocation":"Cornwall, England","DanesRaid_700":0,"DanesRaid_800":1,"DanesRaid_900":0,"DanesRaid_1000":0},"geometry":{"type":"Point","coordinates":[-5.0527,50.266]}},{"type":"Feature","properties":{"RaidDates":837,"RaidCentury":800,"RaidLocation":"Walcheren, Netherlands","DanesRaid_700":0,"DanesRaid_800":1,"DanesRaid_900":0,"DanesRaid_1000":0},"geometry":{"type":"Point","coordinates":[5.1369,52.0604]}},{"type":"Feature","properties":{"RaidDates":841,"RaidCentury":800,"RaidLocation":"Jumièges, France","DanesRaid_700":0,"DanesRaid_800":1,"DanesRaid_900":0,"DanesRaid_1000":0},"geometry":{"type":"Point","coordinates":[0.8191,49.4319]}},{"type":"Feature","properties":{"RaidDates":841,"RaidCentury":800,"RaidLocation":"Rouen, France","DanesRaid_700":0,"DanesRaid_800":1,"DanesRaid_900":0,"DanesRaid_1000":0},"geometry":{"type":"Point","coordinates":[1.1,49.4432]}},{"type":"Feature","properties":{"RaidDates":842,"RaidCentury":800,"RaidLocation":"Quentovic, France","DanesRaid_700":0,"DanesRaid_800":1,"DanesRaid_900":0,"DanesRaid_1000":0},"geometry":{"type":"Point","coordinates":[1.6388,50.5161]}},{"type":"Feature","properties":{"RaidDates":"842, 884","RaidCentury":800,"RaidLocation":"Rochester, England","DanesRaid_700":0,"DanesRaid_800":2,"DanesRaid_900":0,"DanesRaid_1000":0},"geometry":{"type":"Point","coordinates":[0.5067,51.388]}},{"type":"Feature","properties":{"RaidDates":842,"RaidCentury":800,"RaidLocation":"Nantes, France","DanesRaid_700":0,"DanesRaid_800":1,"DanesRaid_900":0,"DanesRaid_1000":0},"geometry":{"type":"Point","coordinates":[-1.5536,47.2184]}},{"type":"Feature","properties":{"RaidDates":"842, 872","RaidCentury":800,"RaidLocation":"London, England","DanesRaid_700":0,"DanesRaid_800":2,"DanesRaid_900":0,"DanesRaid_1000":0},"geometry":{"type":"Point","coordinates":[-0.1278,51.5074]}},{"type":"Feature","properties":{"RaidDates":843,"RaidCentury":800,"RaidLocation":"Dorset, England","DanesRaid_700":0,"DanesRaid_800":1,"DanesRaid_900":0,"DanesRaid_1000":0},"geometry":{"type":"Point","coordinates":[-2.3445,50.7488]}},{"type":"Feature","properties":{"RaidDates":843,"RaidCentury":800,"RaidLocation":"Seville, Spain","DanesRaid_700":0,"DanesRaid_800":1,"DanesRaid_900":0,"DanesRaid_1000":0},"geometry":{"type":"Point","coordinates":[-5.9845,37.3891]}},{"type":"Feature","properties":{"RaidDates":"845, 857, 861, 885, 889","RaidCentury":800,"RaidLocation":"Paris, France","DanesRaid_700":0,"DanesRaid_800":5,"DanesRaid_900":0,"DanesRaid_1000":0},"geometry":{"type":"Point","coordinates":[2.3522,48.8566]}},{"type":"Feature","properties":{"RaidDates":848,"RaidCentury":800,"RaidLocation":"Bordeaux, France","DanesRaid_700":0,"DanesRaid_800":1,"DanesRaid_900":0,"DanesRaid_1000":0},"geometry":{"type":"Point","coordinates":[-0.5792,44.8378]}},{"type":"Feature","properties":{"RaidDates":"850, 853, 980","RaidCentury":800,"RaidLocation":"Isle of Thanet, England","DanesRaid_700":0,"DanesRaid_800":2,"DanesRaid_900":1,"DanesRaid_1000":0},"geometry":{"type":"Point","coordinates":[0.5217,51.2787]}},{"type":"Feature","properties":{"RaidDates":851,"RaidCentury":800,"RaidLocation":"Dublin, Ireland","DanesRaid_700":0,"DanesRaid_800":1,"DanesRaid_900":0,"DanesRaid_1000":0},"geometry":{"type":"Point","coordinates":[-6.2603,53.3498]}},{"type":"Feature","properties":{"RaidDates":853,"RaidCentury":800,"RaidLocation":"Tours, France","DanesRaid_700":0,"DanesRaid_800":1,"DanesRaid_900":0,"DanesRaid_1000":0},"geometry":{"type":"Point","coordinates":[0.6848,47.3941]}},{"type":"Feature","properties":{"RaidDates":854,"RaidCentury":800,"RaidLocation":"Blois, France","DanesRaid_700":0,"DanesRaid_800":1,"DanesRaid_900":0,"DanesRaid_1000":0},"geometry":{"type":"Point","coordinates":[1.3359,47.5861]}},{"type":"Feature","properties":{"RaidDates":858,"RaidCentury":800,"RaidLocation":"Bremen, Germany","DanesRaid_700":0,"DanesRaid_800":1,"DanesRaid_900":0,"DanesRaid_1000":0},"geometry":{"type":"Point","coordinates":[8.8017,53.0793]}},{"type":"Feature","properties":{"RaidDates":861,"RaidCentury":800,"RaidLocation":"Winchester, England","DanesRaid_700":0,"DanesRaid_800":1,"DanesRaid_900":0,"DanesRaid_1000":0},"geometry":{"type":"Point","coordinates":[-1.3101,51.0598]}},{"type":"Feature","properties":{"RaidDates":863,"RaidCentury":800,"RaidLocation":"Neuss, Germany","DanesRaid_700":0,"DanesRaid_800":1,"DanesRaid_900":0,"DanesRaid_1000":0},"geometry":{"type":"Point","coordinates":[6.688,51.2042]}},{"type":"Feature","properties":{"RaidDates":863,"RaidCentury":800,"RaidLocation":"Xanten, Germany","DanesRaid_700":0,"DanesRaid_800":1,"DanesRaid_900":0,"DanesRaid_1000":0},"geometry":{"type":"Point","coordinates":[6.4487,51.6571]}},{"type":"Feature","properties":{"RaidDates":865,"RaidCentury":800,"RaidLocation":"Fleury, France","DanesRaid_700":0,"DanesRaid_800":1,"DanesRaid_900":0,"DanesRaid_1000":0},"geometry":{"type":"Point","coordinates":[2.3668,48.6307]}},{"type":"Feature","properties":{"RaidDates":870,"RaidCentury":800,"RaidLocation":"Reading, England","DanesRaid_700":0,"DanesRaid_800":1,"DanesRaid_900":0,"DanesRaid_1000":0},"geometry":{"type":"Point","coordinates":[-0.9781,51.4543]}},{"type":"Feature","properties":{"RaidDates":870,"RaidCentury":800,"RaidLocation":"Ashdown, England","DanesRaid_700":0,"DanesRaid_800":1,"DanesRaid_900":0,"DanesRaid_1000":0},"geometry":{"type":"Point","coordinates":[-1.088,50.8198]}},{"type":"Feature","properties":{"RaidDates":870,"RaidCentury":800,"RaidLocation":"Basing, England","DanesRaid_700":0,"DanesRaid_800":1,"DanesRaid_900":0,"DanesRaid_1000":0},"geometry":{"type":"Point","coordinates":[-1.0489,51.2712]}},{"type":"Feature","properties":{"RaidDates":870,"RaidCentury":800,"RaidLocation":"Marlborough, England","DanesRaid_700":0,"DanesRaid_800":1,"DanesRaid_900":0,"DanesRaid_1000":0},"geometry":{"type":"Point","coordinates":[-1.7271,51.4201]}},{"type":"Feature","properties":{"RaidDates":870,"RaidCentury":800,"RaidLocation":"Wilton, England","DanesRaid_700":0,"DanesRaid_800":1,"DanesRaid_900":0,"DanesRaid_1000":0},"geometry":{"type":"Point","coordinates":[-1.8626,51.079]}},{"type":"Feature","properties":{"RaidDates":872,"RaidCentury":800,"RaidLocation":"Rhineland, Germany","DanesRaid_700":0,"DanesRaid_800":1,"DanesRaid_900":0,"DanesRaid_1000":0},"geometry":{"type":"Point","coordinates":[7.309,50.1183]}},{"type":"Feature","properties":{"RaidDates":"873, 875, 910, 939, 1075","RaidCentury":800,"RaidLocation":"York, England","DanesRaid_700":0,"DanesRaid_800":5,"DanesRaid_900":0,"DanesRaid_1000":0},"geometry":{"type":"Point","coordinates":[-1.0873,53.96]}},{"type":"Feature","properties":{"RaidDates":873,"RaidCentury":800,"RaidLocation":"Torksey, England","DanesRaid_700":0,"DanesRaid_800":1,"DanesRaid_900":0,"DanesRaid_1000":0},"geometry":{"type":"Point","coordinates":[-0.7426,53.3025]}},{"type":"Feature","properties":{"RaidDates":873,"RaidCentury":800,"RaidLocation":"Repton, England","DanesRaid_700":0,"DanesRaid_800":1,"DanesRaid_900":0,"DanesRaid_1000":0},"geometry":{"type":"Point","coordinates":[-1.5495,52.8387]}},{"type":"Feature","properties":{"RaidDates":875,"RaidCentury":800,"RaidLocation":"Carlisle, England","DanesRaid_700":0,"DanesRaid_800":1,"DanesRaid_900":0,"DanesRaid_1000":0},"geometry":{"type":"Point","coordinates":[-2.9329,54.8925]}},{"type":"Feature","properties":{"RaidDates":875,"RaidCentury":800,"RaidLocation":"Hexham, England","DanesRaid_700":0,"DanesRaid_800":1,"DanesRaid_900":0,"DanesRaid_1000":0},"geometry":{"type":"Point","coordinates":[-2.1121,54.9727]}},{"type":"Feature","properties":{"RaidDates":875,"RaidCentury":800,"RaidLocation":"Cambridge, England","DanesRaid_700":0,"DanesRaid_800":1,"DanesRaid_900":0,"DanesRaid_1000":0},"geometry":{"type":"Point","coordinates":[0.1218,52.2053]}},{"type":"Feature","properties":{"RaidDates":875,"RaidCentury":800,"RaidLocation":"Derby, England","DanesRaid_700":0,"DanesRaid_800":1,"DanesRaid_900":0,"DanesRaid_1000":0},"geometry":{"type":"Point","coordinates":[-1.4746,52.9225]}},{"type":"Feature","properties":{"RaidDates":875,"RaidCentury":800,"RaidLocation":"Wareham, England","DanesRaid_700":0,"DanesRaid_800":1,"DanesRaid_900":0,"DanesRaid_1000":0},"geometry":{"type":"Point","coordinates":[-2.111,50.6878]}},{"type":"Feature","properties":{"RaidDates":875,"RaidCentury":800,"RaidLocation":"Leicester, England","DanesRaid_700":0,"DanesRaid_800":1,"DanesRaid_900":0,"DanesRaid_1000":0},"geometry":{"type":"Point","coordinates":[-1.1398,52.6369]}},{"type":"Feature","properties":{"RaidDates":875,"RaidCentury":800,"RaidLocation":"Lincoln, England","DanesRaid_700":0,"DanesRaid_800":1,"DanesRaid_900":0,"DanesRaid_1000":0},"geometry":{"type":"Point","coordinates":[-0.5406,53.2307]}},{"type":"Feature","properties":{"RaidDates":875,"RaidCentury":800,"RaidLocation":"Nottinghamshire, England","DanesRaid_700":0,"DanesRaid_800":1,"DanesRaid_900":0,"DanesRaid_1000":0},"geometry":{"type":"Point","coordinates":[-0.9936,53.1003]}},{"type":"Feature","properties":{"RaidDates":875,"RaidCentury":800,"RaidLocation":"Stamford, England","DanesRaid_700":0,"DanesRaid_800":1,"DanesRaid_900":0,"DanesRaid_1000":0},"geometry":{"type":"Point","coordinates":[-0.4802,52.6513]}},{"type":"Feature","properties":{"RaidDates":877,"RaidCentury":800,"RaidLocation":"Gloucester, England","DanesRaid_700":0,"DanesRaid_800":1,"DanesRaid_900":0,"DanesRaid_1000":0},"geometry":{"type":"Point","coordinates":[-2.2382,51.8642]}},{"type":"Feature","properties":{"RaidDates":878,"RaidCentury":800,"RaidLocation":"Fulham, England","DanesRaid_700":0,"DanesRaid_800":1,"DanesRaid_900":0,"DanesRaid_1000":0},"geometry":{"type":"Point","coordinates":[-0.2017,51.4773]}},{"type":"Feature","properties":{"RaidDates":879,"RaidCentury":800,"RaidLocation":"Tongeren, Belgium","DanesRaid_700":0,"DanesRaid_800":1,"DanesRaid_900":0,"DanesRaid_1000":0},"geometry":{"type":"Point","coordinates":[5.4745,50.7842]}},{"type":"Feature","properties":{"RaidDates":882,"RaidCentury":800,"RaidLocation":"Aix, France","DanesRaid_700":0,"DanesRaid_800":1,"DanesRaid_900":0,"DanesRaid_1000":0},"geometry":{"type":"Point","coordinates":[5.4474,43.5297]}},{"type":"Feature","properties":{"RaidDates":882,"RaidCentury":800,"RaidLocation":"Cologne, Germany","DanesRaid_700":0,"DanesRaid_800":1,"DanesRaid_900":0,"DanesRaid_1000":0},"geometry":{"type":"Point","coordinates":[6.9603,50.9375]}},{"type":"Feature","properties":{"RaidDates":882,"RaidCentury":800,"RaidLocation":"Liège, Belgium","DanesRaid_700":0,"DanesRaid_800":1,"DanesRaid_900":0,"DanesRaid_1000":0},"geometry":{"type":"Point","coordinates":[5.5797,50.6326]}},{"type":"Feature","properties":{"RaidDates":882,"RaidCentury":800,"RaidLocation":"Bayeux, France","DanesRaid_700":0,"DanesRaid_800":1,"DanesRaid_900":0,"DanesRaid_1000":0},"geometry":{"type":"Point","coordinates":[-0.7031,49.2764]}},{"type":"Feature","properties":{"RaidDates":882,"RaidCentury":800,"RaidLocation":"Soissons, France","DanesRaid_700":0,"DanesRaid_800":1,"DanesRaid_900":0,"DanesRaid_1000":0},"geometry":{"type":"Point","coordinates":[3.3234,49.3766]}},{"type":"Feature","properties":{"RaidDates":882,"RaidCentury":800,"RaidLocation":"Trier, Germany","DanesRaid_700":0,"DanesRaid_800":1,"DanesRaid_900":0,"DanesRaid_1000":0},"geometry":{"type":"Point","coordinates":[6.6371,49.75]}},{"type":"Feature","properties":{"RaidDates":882,"RaidCentury":800,"RaidLocation":"Elsloo, Netherlands","DanesRaid_700":0,"DanesRaid_800":1,"DanesRaid_900":0,"DanesRaid_1000":0},"geometry":{"type":"Point","coordinates":[5.7697,50.9485]}},{"type":"Feature","properties":{"RaidDates":884,"RaidCentury":800,"RaidLocation":"Louvain, Belgium","DanesRaid_700":0,"DanesRaid_800":1,"DanesRaid_900":0,"DanesRaid_1000":0},"geometry":{"type":"Point","coordinates":[4.7005,50.8798]}},{"type":"Feature","properties":{"RaidDates":"884, 991, 1011, 1070","RaidCentury":800,"RaidLocation":"Kent, England","DanesRaid_700":0,"DanesRaid_800":1,"DanesRaid_900":1,"DanesRaid_1000":2},"geometry":{"type":"Point","coordinates":[0.5217,51.2787]}},{"type":"Feature","properties":{"RaidDates":885,"RaidCentury":800,"RaidLocation":"Pont-de-l'Arche, France","DanesRaid_700":0,"DanesRaid_800":1,"DanesRaid_900":0,"DanesRaid_1000":0},"geometry":{"type":"Point","coordinates":[1.1582,49.3034]}},{"type":"Feature","properties":{"RaidDates":886,"RaidCentury":800,"RaidLocation":"Burgundy, France","DanesRaid_700":0,"DanesRaid_800":1,"DanesRaid_900":0,"DanesRaid_1000":0},"geometry":{"type":"Point","coordinates":[4.3837,47.0525]}},{"type":"Feature","properties":{"RaidDates":888,"RaidCentury":800,"RaidLocation":"Montfaucon, France","DanesRaid_700":0,"DanesRaid_800":1,"DanesRaid_900":0,"DanesRaid_1000":0},"geometry":{"type":"Point","coordinates":[-0.0688,48.0067]}},{"type":"Feature","properties":{"RaidDates":889,"RaidCentury":800,"RaidLocation":"St-Lô, France","DanesRaid_700":0,"DanesRaid_800":1,"DanesRaid_900":0,"DanesRaid_1000":0},"geometry":{"type":"Point","coordinates":[-1.0828,49.1155]}},{"type":"Feature","properties":{"RaidDates":895,"RaidCentury":800,"RaidLocation":"Shetland Islands, Scotland","DanesRaid_700":0,"DanesRaid_800":1,"DanesRaid_900":0,"DanesRaid_1000":0},"geometry":{"type":"Point","coordinates":[-1.2659,60.5297]}},{"type":"Feature","properties":{"RaidDates":891,"RaidCentury":800,"RaidLocation":"Leuven, Belgium","DanesRaid_700":0,"DanesRaid_800":1,"DanesRaid_900":0,"DanesRaid_1000":0},"geometry":{"type":"Point","coordinates":[4.7005,50.8789]}},{"type":"Feature","properties":{"RaidDates":908,"RaidCentury":900,"RaidLocation":"Wirral, England","DanesRaid_700":0,"DanesRaid_800":0,"DanesRaid_900":1,"DanesRaid_1000":0},"geometry":{"type":"Point","coordinates":[-3.0738,53.3727]}},{"type":"Feature","properties":{"RaidDates":908,"RaidCentury":900,"RaidLocation":"Chester, England","DanesRaid_700":0,"DanesRaid_800":0,"DanesRaid_900":1,"DanesRaid_1000":0},"geometry":{"type":"Point","coordinates":[-2.8931,53.1934]}},{"type":"Feature","properties":{"RaidDates":908,"RaidCentury":900,"RaidLocation":"Amounderness, England","DanesRaid_700":0,"DanesRaid_800":0,"DanesRaid_900":1,"DanesRaid_1000":0},"geometry":{"type":"Point","coordinates":[-2.7044,53.7632]}},{"type":"Feature","properties":{"RaidDates":908,"RaidCentury":900,"RaidLocation":"Cumbria, England","DanesRaid_700":0,"DanesRaid_800":0,"DanesRaid_900":1,"DanesRaid_1000":0},"geometry":{"type":"Point","coordinates":[-2.7975,54.5772]}},{"type":"Feature","properties":{"RaidDates":910,"RaidCentury":900,"RaidLocation":"Tettenhall, England","DanesRaid_700":0,"DanesRaid_800":0,"DanesRaid_900":1,"DanesRaid_1000":0},"geometry":{"type":"Point","coordinates":[-2.1607,52.5983]}},{"type":"Feature","properties":{"RaidDates":911,"RaidCentury":900,"RaidLocation":"Upper Normandy, France","DanesRaid_700":0,"DanesRaid_800":0,"DanesRaid_900":1,"DanesRaid_1000":0},"geometry":{"type":"Point","coordinates":[0.1713,48.8799]}},{"type":"Feature","properties":{"RaidDates":919,"RaidCentury":900,"RaidLocation":"Cheshire, England","DanesRaid_700":0,"DanesRaid_800":0,"DanesRaid_900":1,"DanesRaid_1000":0},"geometry":{"type":"Point","coordinates":[-2.6103,53.2326]}},{"type":"Feature","properties":{"RaidDates":920,"RaidCentury":900,"RaidLocation":"Tempsford, England","DanesRaid_700":0,"DanesRaid_800":0,"DanesRaid_900":1,"DanesRaid_1000":0},"geometry":{"type":"Point","coordinates":[-0.2918,52.1706]}},{"type":"Feature","properties":{"RaidDates":925,"RaidCentury":900,"RaidLocation":"Beauvais, France","DanesRaid_700":0,"DanesRaid_800":0,"DanesRaid_900":1,"DanesRaid_1000":0},"geometry":{"type":"Point","coordinates":[2.0807,49.4295]}},{"type":"Feature","properties":{"RaidDates":925,"RaidCentury":900,"RaidLocation":"Amiens, France","DanesRaid_700":0,"DanesRaid_800":0,"DanesRaid_900":1,"DanesRaid_1000":0},"geometry":{"type":"Point","coordinates":[2.2958,49.8941]}},{"type":"Feature","properties":{"RaidDates":929,"RaidCentury":900,"RaidLocation":"Kildare, Ireland","DanesRaid_700":0,"DanesRaid_800":0,"DanesRaid_900":1,"DanesRaid_1000":0},"geometry":{"type":"Point","coordinates":[-6.9096,53.1589]}},{"type":"Feature","properties":{"RaidDates":936,"RaidCentury":900,"RaidLocation":"Clonmacnoise, Ireland","DanesRaid_700":0,"DanesRaid_800":0,"DanesRaid_900":1,"DanesRaid_1000":0},"geometry":{"type":"Point","coordinates":[-7.9863,53.3263]}},{"type":"Feature","properties":{"RaidDates":937,"RaidCentury":900,"RaidLocation":"Limerick, Ireland","DanesRaid_700":0,"DanesRaid_800":0,"DanesRaid_900":1,"DanesRaid_1000":0},"geometry":{"type":"Point","coordinates":[-8.6305,52.668]}},{"type":"Feature","properties":{"RaidDates":941,"RaidCentury":900,"RaidLocation":"Downpatrick, Ireland","DanesRaid_700":0,"DanesRaid_800":0,"DanesRaid_900":1,"DanesRaid_1000":0},"geometry":{"type":"Point","coordinates":[-5.7157,54.3288]}},{"type":"Feature","properties":{"RaidDates":974,"RaidCentury":900,"RaidLocation":"Danevirke, Germany","DanesRaid_700":0,"DanesRaid_800":0,"DanesRaid_900":1,"DanesRaid_1000":0},"geometry":{"type":"Point","coordinates":[9.6961,54.2194]}},{"type":"Feature","properties":{"RaidDates":980,"RaidCentury":900,"RaidLocation":"Southampton, England","DanesRaid_700":0,"DanesRaid_800":0,"DanesRaid_900":1,"DanesRaid_1000":0},"geometry":{"type":"Point","coordinates":[-1.4044,50.9097]}},{"type":"Feature","properties":{"RaidDates":987,"RaidCentury":900,"RaidLocation":"Dal Riada, Ireland","DanesRaid_700":0,"DanesRaid_800":0,"DanesRaid_900":1,"DanesRaid_1000":0},"geometry":{"type":"Point","coordinates":[-6.2072,54.7195]}},{"type":"Feature","properties":{"RaidDates":991,"RaidCentury":900,"RaidLocation":"Northey Island, England","DanesRaid_700":0,"DanesRaid_800":0,"DanesRaid_900":1,"DanesRaid_1000":0},"geometry":{"type":"Point","coordinates":[0.7218,51.7221]}},{"type":"Feature","properties":{"RaidDates":1011,"RaidCentury":1000,"RaidLocation":"Canterbury, England","DanesRaid_700":0,"DanesRaid_800":0,"DanesRaid_900":0,"DanesRaid_1000":1},"geometry":{"type":"Point","coordinates":[1.0789,51.2802]}},{"type":"Feature","properties":{"RaidDates":1015,"RaidCentury":1000,"RaidLocation":"Ashingdon, England","DanesRaid_700":0,"DanesRaid_800":0,"DanesRaid_900":0,"DanesRaid_1000":1},"geometry":{"type":"Point","coordinates":[0.6893,51.6153]}},{"type":"Feature","properties":{"RaidDates":1028,"RaidCentury":1000,"RaidLocation":"Orkney Islands, Scotland","DanesRaid_700":0,"DanesRaid_800":0,"DanesRaid_900":0,"DanesRaid_1000":1},"geometry":{"type":"Point","coordinates":[-2.9605,58.9809]}},{"type":"Feature","properties":{"RaidDates":1048,"RaidCentury":1000,"RaidLocation":"Sandwich, England","DanesRaid_700":0,"DanesRaid_800":0,"DanesRaid_900":0,"DanesRaid_1000":1},"geometry":{"type":"Point","coordinates":[1.3374,51.274]}}]}