{"type":"FeatureCollection","features":[{"type":"Feature","properties":{"Date":789,"Location":"Northumberland","Country":"England","Century":700,"Source":"Danes","Notes":"","Location_Type":"Province"},"geometry":{"type":"Point","coordinates":[-2.0784,55.2083]}},{"type":"Feature","properties":{"Date":793,"Location":"Lindisfarne","Country":"England","Century":700,"Source":"Danes","Notes":"Wearmouth and Jarrow","Location_Type":"City"},"geometry":{"type":"Point","coordinates":[-1.3747,54.9133]}},{"type":"Feature","properties":{"Date":793,"Location":"Hamburg","Country":"Germany","Century":700,"Source":"Danes","Notes":"","Location_Type":"City"},"geometry":{"type":"Point","coordinates":[9.9937,53.5511]}},{"type":"Feature","properties":{"Date":793,"Location":"Friesland","Country":"Netherlands","Century":700,"Source":"Danes","Notes":"Frisia","Location_Type":"Province"},"geometry":{"type":"Point","coordinates":[5.7818,53.1642]}},{"type":"Feature","properties":{"Date":799,"Location":"Noirmoutier","Country":"France","Century":700,"Source":"Danes","Notes":"","Location_Type":"Island"},"geometry":{"type":"Point","coordinates":[-2.2471,47.0011]}},{"type":"Feature","properties":{"Date":799,"Location":"Aquitaine","Country":"France","Century":700,"Source":"Danes","Notes":"Nouvelle-Aquitaine","Location_Type":"Region"},"geometry":{"type":"Point","coordinates":[-0.2996,44.7002]}},{"type":"Feature","properties":{"Date":799,"Location":"Francia","Country":"France","Century":700,"Source":"Danes","Notes":"","Location_Type":"State Entity"},"geometry":{"type":"Point","coordinates":[2.2137,46.2276]}},{"type":"Feature","properties":{"Date":802,"Location":"Wessex","Country":"England","Century":800,"Source":"Danes","Notes":"Glastonbury","Location_Type":"County"},"geometry":{"type":"Point","coordinates":[-2.7185,51.1474]}},{"type":"Feature","properties":{"Date":810,"Location":"Frisia","Country":"Netherlands","Century":800,"Source":"Danes","Notes":"","Location_Type":"Province"},"geometry":{"type":"Point","coordinates":[5.7818,53.1642]}},{"type":"Feature","properties":{"Date":834,"Location":"Dorestad","Country":"Netherlands","Century":800,"Source":"Danes","Notes":"","Location_Type":"City"},"geometry":{"type":"Point","coordinates":[5.3384,51.9756]}},{"type":"Feature","properties":{"Date":834,"Location":"Frisia","Country":"Netherlands","Century":800,"Source":"Danes","Notes":"","Location_Type":"Province"},"geometry":{"type":"Point","coordinates":[5.7818,53.1642]}},{"type":"Feature","properties":{"Date":835,"Location":"Dorestad","Country":"Netherlands","Century":800,"Source":"Danes","Notes":"","Location_Type":"City"},"geometry":{"type":"Point","coordinates":[5.3384,51.9756]}},{"type":"Feature","properties":{"Date":835,"Location":"Isle of Sheppey","Country":"England","Century":800,"Source":"Danes","Notes":"","Location_Type":"Island"},"geometry":{"type":"Point","coordinates":[0.8365,51.3965]}},{"type":"Feature","properties":{"Date":835,"Location":"Noirmoutier","Country":"France","Century":800,"Source":"Danes","Notes":"","Location_Type":"Island"},"geometry":{"type":"Point","coordinates":[-2.2471,47.0011]}},{"type":"Feature","properties":{"Date":836,"Location":"Dorestad","Country":"Netherlands","Century":800,"Source":"Danes","Notes":"","Location_Type":"City"},"geometry":{"type":"Point","coordinates":[5.3384,51.9756]}},{"type":"Feature","properties":{"Date":836,"Location":"Antwerp","Country":"Belgium","Century":800,"Source":"Danes","Notes":"Witla nearby?","Location_Type":"City"},"geometry":{"type":"Point","coordinates":[4.4025,51.2194]}},{"type":"Feature","properties":{"Date":836,"Location":"Frisia","Country":"Netherlands","Century":800,"Source":"Danes","Notes":"","Location_Type":"Province"},"geometry":{"type":"Point","coordinates":[5.7818,53.1642]}},{"type":"Feature","properties":{"Date":836,"Location":"Cornwall","Country":"England","Century":800,"Source":"Danes","Notes":"","Location_Type":"County"},"geometry":{"type":"Point","coordinates":[-5.0527,50.266]}},{"type":"Feature","properties":{"Date":837,"Location":"Dorestad","Country":"Netherlands","Century":800,"Source":"Danes","Notes":"","Location_Type":"City"},"geometry":{"type":"Point","coordinates":[5.3384,51.9756]}},{"type":"Feature","properties":{"Date":837,"Location":"Walcheren","Country":"Netherlands","Century":800,"Source":"Danes","Notes":"","Location_Type":"City"},"geometry":{"type":"Point","coordinates":[5.1369,52.0604]}},{"type":"Feature","properties":{"Date":837,"Location":"Frisia","Country":"Netherlands","Century":800,"Source":"Danes","Notes":"","Location_Type":"Province"},"geometry":{"type":"Point","coordinates":[5.7818,53.1642]}},{"type":"Feature","properties":{"Date":841,"Location":"Jumièges","Country":"France","Century":800,"Source":"Danes","Notes":"","Location_Type":"Abbey"},"geometry":{"type":"Point","coordinates":[0.8191,49.4319]}},{"type":"Feature","properties":{"Date":841,"Location":"Rouen","Country":"France","Century":800,"Source":"Danes","Notes":"","Location_Type":"City"},"geometry":{"type":"Point","coordinates":[1.1,49.4432]}},{"type":"Feature","properties":{"Date":842,"Location":"Quentovic","Country":"France","Century":800,"Source":"Danes","Notes":"Near Etaples","Location_Type":"City"},"geometry":{"type":"Point","coordinates":[1.6388,50.5161]}},{"type":"Feature","properties":{"Date":842,"Location":"Rochester","Country":"England","Century":800,"Source":"Danes","Notes":"","Location_Type":"City"},"geometry":{"type":"Point","coordinates":[0.5067,51.388]}},{"type":"Feature","properties":{"Date":842,"Location":"Nantes","Country":"France","Century":800,"Source":"Danes","Notes":"","Location_Type":"City"},"geometry":{"type":"Point","coordinates":[-1.5536,47.2184]}},{"type":"Feature","properties":{"Date":842,"Location":"London","Country":"England","Century":800,"Source":"Danes","Notes":"","Location_Type":"City"},"geometry":{"type":"Point","coordinates":[-0.1278,51.5074]}},{"type":"Feature","properties":{"Date":843,"Location":"Dorest","Country":"England","Century":800,"Source":"Danes","Notes":"","Location_Type":"City"},"geometry":{"type":"Point","coordinates":[-2.3445,50.7488]}},{"type":"Feature","properties":{"Date":843,"Location":"Seville","Country":"Spain","Century":800,"Source":"Danes","Notes":"","Location_Type":"City"},"geometry":{"type":"Point","coordinates":[-5.9845,37.3891]}},{"type":"Feature","properties":{"Date":845,"Location":"Hamburg","Country":"Germany","Century":800,"Source":"Danes","Notes":"","Location_Type":"City"},"geometry":{"type":"Point","coordinates":[9.9937,53.5511]}},{"type":"Feature","properties":{"Date":845,"Location":"Paris","Country":"France","Century":800,"Source":"Danes","Notes":"","Location_Type":"City"},"geometry":{"type":"Point","coordinates":[2.3522,48.8566]}},{"type":"Feature","properties":{"Date":848,"Location":"Bordeaux","Country":"France","Century":800,"Source":"Danes","Notes":"","Location_Type":"City"},"geometry":{"type":"Point","coordinates":[-0.5792,44.8378]}},{"type":"Feature","properties":{"Date":850,"Location":"Isle of Thanet","Country":"England","Century":800,"Source":"Danes","Notes":"","Location_Type":"Province"},"geometry":{"type":"Point","coordinates":[0.5217,51.2787]}},{"type":"Feature","properties":{"Date":851,"Location":"Dublin","Country":"Ireland","Century":800,"Source":"Danes","Notes":"","Location_Type":"City"},"geometry":{"type":"Point","coordinates":[-6.2603,53.3498]}},{"type":"Feature","properties":{"Date":853,"Location":"Isle of Thanet","Country":"England","Century":800,"Source":"Danes","Notes":"","Location_Type":"Province"},"geometry":{"type":"Point","coordinates":[0.5217,51.2787]}},{"type":"Feature","properties":{"Date":853,"Location":"Tours","Country":"France","Century":800,"Source":"Danes","Notes":"","Location_Type":"City"},"geometry":{"type":"Point","coordinates":[0.6848,47.3941]}},{"type":"Feature","properties":{"Date":854,"Location":"Blois","Country":"France","Century":800,"Source":"Danes","Notes":"","Location_Type":"City"},"geometry":{"type":"Point","coordinates":[1.3359,47.5861]}},{"type":"Feature","properties":{"Date":855,"Location":"Isle of Sheppey","Country":"England","Century":800,"Source":"Danes","Notes":"","Location_Type":"Island"},"geometry":{"type":"Point","coordinates":[0.8365,51.3965]}},{"type":"Feature","properties":{"Date":857,"Location":"Paris","Country":"France","Century":800,"Source":"Danes","Notes":"","Location_Type":"City"},"geometry":{"type":"Point","coordinates":[2.3522,48.8566]}},{"type":"Feature","properties":{"Date":858,"Location":"Bremen","Country":"Germany","Century":800,"Source":"Danes","Notes":"","Location_Type":"City"},"geometry":{"type":"Point","coordinates":[8.8017,53.0793]}},{"type":"Feature","properties":{"Date":861,"Location":"Paris","Country":"France","Century":800,"Source":"Danes","Notes":"","Location_Type":"City"},"geometry":{"type":"Point","coordinates":[2.3522,48.8566]}},{"type":"Feature","properties":{"Date":861,"Location":"Winchester","Country":"England","Century":800,"Source":"Danes","Notes":"","Location_Type":"City"},"geometry":{"type":"Point","coordinates":[-1.3101,51.0598]}},{"type":"Feature","properties":{"Date":863,"Location":"Neuss","Country":"Germany","Century":800,"Source":"Danes","Notes":"","Location_Type":"City"},"geometry":{"type":"Point","coordinates":[6.688,51.2042]}},{"type":"Feature","properties":{"Date":863,"Location":"Xanten","Country":"Germany","Century":800,"Source":"Danes","Notes":"","Location_Type":"City"},"geometry":{"type":"Point","coordinates":[6.4487,51.6571]}},{"type":"Feature","properties":{"Date":865,"Location":"Fleury","Country":"France","Century":800,"Source":"Danes","Notes":"","Location_Type":"City"},"geometry":{"type":"Point","coordinates":[2.3668,48.6307]}},{"type":"Feature","properties":{"Date":870,"Location":"Reading","Country":"England","Century":800,"Source":"Danes","Notes":"","Location_Type":"City"},"geometry":{"type":"Point","coordinates":[-0.9781,51.4543]}},{"type":"Feature","properties":{"Date":870,"Location":"Ashdown","Country":"England","Century":800,"Source":"Danes","Notes":"","Location_Type":"City"},"geometry":{"type":"Point","coordinates":[-1.088,50.8198]}},{"type":"Feature","properties":{"Date":870,"Location":"Basing","Country":"England","Century":800,"Source":"Danes","Notes":"","Location_Type":"City"},"geometry":{"type":"Point","coordinates":[-1.0489,51.2712]}},{"type":"Feature","properties":{"Date":870,"Location":"Marlborough","Country":"England","Century":800,"Source":"Danes","Notes":"","Location_Type":"City"},"geometry":{"type":"Point","coordinates":[-1.7271,51.4201]}},{"type":"Feature","properties":{"Date":870,"Location":"Wilton","Country":"England","Century":800,"Source":"Danes","Notes":"","Location_Type":"City"},"geometry":{"type":"Point","coordinates":[-1.8626,51.079]}},{"type":"Feature","properties":{"Date":872,"Location":"Rhineland","Country":"Germany","Century":800,"Source":"Danes","Notes":"","Location_Type":"Province"},"geometry":{"type":"Point","coordinates":[7.309,50.1183]}},{"type":"Feature","properties":{"Date":872,"Location":"London","Country":"England","Century":800,"Source":"Danes","Notes":"","Location_Type":"City"},"geometry":{"type":"Point","coordinates":[-0.1278,51.5074]}},{"type":"Feature","properties":{"Date":873,"Location":"York","Country":"England","Century":800,"Source":"Danes","Notes":"","Location_Type":"City"},"geometry":{"type":"Point","coordinates":[-1.0873,53.96]}},{"type":"Feature","properties":{"Date":873,"Location":"Torksey","Country":"England","Century":800,"Source":"Danes","Notes":"","Location_Type":"City"},"geometry":{"type":"Point","coordinates":[-0.7426,53.3025]}},{"type":"Feature","properties":{"Date":873,"Location":"Repton","Country":"England","Century":800,"Source":"Danes","Notes":"","Location_Type":"City"},"geometry":{"type":"Point","coordinates":[-1.5495,52.8387]}},{"type":"Feature","properties":{"Date":875,"Location":"Carlisle","Country":"England","Century":800,"Source":"Danes","Notes":"","Location_Type":"City"},"geometry":{"type":"Point","coordinates":[-2.9329,54.8925]}},{"type":"Feature","properties":{"Date":875,"Location":"Hexham","Country":"England","Century":800,"Source":"Danes","Notes":"","Location_Type":"City"},"geometry":{"type":"Point","coordinates":[-2.1121,54.9727]}},{"type":"Feature","properties":{"Date":875,"Location":"Lindisfarne","Country":"England","Century":800,"Source":"Danes","Notes":"","Location_Type":"City"},"geometry":{"type":"Point","coordinates":[-1.3747,54.9133]}},{"type":"Feature","properties":{"Date":875,"Location":"York","Country":"England","Century":800,"Source":"Danes","Notes":"","Location_Type":"City"},"geometry":{"type":"Point","coordinates":[-1.0873,53.96]}},{"type":"Feature","properties":{"Date":875,"Location":"Cambridge","Country":"England","Century":800,"Source":"Danes","Notes":"","Location_Type":"City"},"geometry":{"type":"Point","coordinates":[0.1218,52.2053]}},{"type":"Feature","properties":{"Date":875,"Location":"Derby","Country":"England","Century":800,"Source":"Danes","Notes":"","Location_Type":"City"},"geometry":{"type":"Point","coordinates":[-1.4746,52.9225]}},{"type":"Feature","properties":{"Date":875,"Location":"Wareham","Country":"England","Century":800,"Source":"Danes","Notes":"","Location_Type":"City"},"geometry":{"type":"Point","coordinates":[-2.111,50.6878]}},{"type":"Feature","properties":{"Date":875,"Location":"Leicester","Country":"England","Century":800,"Source":"Danes","Notes":"","Location_Type":"City"},"geometry":{"type":"Point","coordinates":[-1.1398,52.6369]}},{"type":"Feature","properties":{"Date":875,"Location":"Lincoln","Country":"England","Century":800,"Source":"Danes","Notes":"","Location_Type":"City"},"geometry":{"type":"Point","coordinates":[-0.5406,53.2307]}},{"type":"Feature","properties":{"Date":875,"Location":"Nottinghamshire","Country":"England","Century":800,"Source":"Danes","Notes":"","Location_Type":"County"},"geometry":{"type":"Point","coordinates":[-0.9936,53.1003]}},{"type":"Feature","properties":{"Date":875,"Location":"Stamford","Country":"England","Century":800,"Source":"Danes","Notes":"","Location_Type":"City"},"geometry":{"type":"Point","coordinates":[-0.4802,52.6513]}},{"type":"Feature","properties":{"Date":877,"Location":"Gloucester","Country":"England","Century":800,"Source":"Danes","Notes":"","Location_Type":"City"},"geometry":{"type":"Point","coordinates":[-2.2382,51.8642]}},{"type":"Feature","properties":{"Date":878,"Location":"Fulham","Country":"England","Century":800,"Source":"Danes","Notes":"","Location_Type":"City"},"geometry":{"type":"Point","coordinates":[-0.2017,51.4773]}},{"type":"Feature","properties":{"Date":879,"Location":"Tongeren","Country":"Belgium","Century":800,"Source":"Danes","Notes":"","Location_Type":"City"},"geometry":{"type":"Point","coordinates":[5.4745,50.7842]}},{"type":"Feature","properties":{"Date":882,"Location":"Aix","Country":"France","Century":800,"Source":"Danes","Notes":"Aix-en-Provence","Location_Type":"City"},"geometry":{"type":"Point","coordinates":[5.4474,43.5297]}},{"type":"Feature","properties":{"Date":882,"Location":"Cologne","Country":"Germany","Century":800,"Source":"Danes","Notes":"","Location_Type":"City"},"geometry":{"type":"Point","coordinates":[6.9603,50.9375]}},{"type":"Feature","properties":{"Date":882,"Location":"Liège","Country":"Belgium","Century":800,"Source":"Danes","Notes":"","Location_Type":"City"},"geometry":{"type":"Point","coordinates":[5.5797,50.6326]}},{"type":"Feature","properties":{"Date":882,"Location":"Bayeux","Country":"France","Century":800,"Source":"Danes","Notes":"","Location_Type":"City"},"geometry":{"type":"Point","coordinates":[-0.7031,49.2764]}},{"type":"Feature","properties":{"Date":882,"Location":"Soissons","Country":"France","Century":800,"Source":"Danes","Notes":"","Location_Type":"City"},"geometry":{"type":"Point","coordinates":[3.3234,49.3766]}},{"type":"Feature","properties":{"Date":882,"Location":"Trier","Country":"Germany","Century":800,"Source":"Danes","Notes":"","Location_Type":"City"},"geometry":{"type":"Point","coordinates":[6.6371,49.75]}},{"type":"Feature","properties":{"Date":882,"Location":"Elsloo","Country":"Netherlands","Century":800,"Source":"Danes","Notes":"","Location_Type":"City"},"geometry":{"type":"Point","coordinates":[5.7697,50.9485]}},{"type":"Feature","properties":{"Date":884,"Location":"Louvain","Country":"Belgium","Century":800,"Source":"Danes","Notes":"Leuven","Location_Type":"City"},"geometry":{"type":"Point","coordinates":[4.7005,50.8798]}},{"type":"Feature","properties":{"Date":884,"Location":"Rochester","Country":"England","Century":800,"Source":"Danes","Notes":"","Location_Type":"City"},"geometry":{"type":"Point","coordinates":[0.5067,51.388]}},{"type":"Feature","properties":{"Date":884,"Location":"Kent","Country":"England","Century":800,"Source":"Danes","Notes":"","Location_Type":"County"},"geometry":{"type":"Point","coordinates":[0.5217,51.2787]}},{"type":"Feature","properties":{"Date":885,"Location":"Pont-de-l'Arche","Country":"France","Century":800,"Source":"Danes","Notes":"","Location_Type":"City"},"geometry":{"type":"Point","coordinates":[1.1582,49.3034]}},{"type":"Feature","properties":{"Date":885,"Location":"Paris","Country":"France","Century":800,"Source":"Danes","Notes":"","Location_Type":"City"},"geometry":{"type":"Point","coordinates":[2.3522,48.8566]}},{"type":"Feature","properties":{"Date":886,"Location":"Burgundy","Country":"France","Century":800,"Source":"Danes","Notes":"","Location_Type":"City"},"geometry":{"type":"Point","coordinates":[4.3837,47.0525]}},{"type":"Feature","properties":{"Date":888,"Location":"Montfaucon","Country":"France","Century":800,"Source":"Danes","Notes":"","Location_Type":"City"},"geometry":{"type":"Point","coordinates":[-0.0688,48.0067]}},{"type":"Feature","properties":{"Date":889,"Location":"Paris","Country":"France","Century":800,"Source":"Danes","Notes":"","Location_Type":"City"},"geometry":{"type":"Point","coordinates":[2.3522,48.8566]}},{"type":"Feature","properties":{"Date":889,"Location":"St-Lô","Country":"France","Century":800,"Source":"Danes","Notes":"","Location_Type":"City"},"geometry":{"type":"Point","coordinates":[-1.0828,49.1155]}},{"type":"Feature","properties":{"Date":895,"Location":"Shetland Islands","Country":"Scotland","Century":800,"Source":"Danes","Notes":"","Location_Type":"Islands"},"geometry":{"type":"Point","coordinates":[-1.2659,60.5297]}},{"type":"Feature","properties":{"Date":891,"Location":"Leuven","Country":"Belgium","Century":800,"Source":"Danes","Notes":"","Location_Type":"City"},"geometry":{"type":"Point","coordinates":[4.7005,50.8789]}},{"type":"Feature","properties":{"Date":908,"Location":"Wirral","Country":"England","Century":900,"Source":"Danes","Notes":"","Location_Type":"Borough"},"geometry":{"type":"Point","coordinates":[-3.0738,53.3727]}},{"type":"Feature","properties":{"Date":908,"Location":"Chester","Country":"England","Century":900,"Source":"Danes","Notes":"","Location_Type":"City"},"geometry":{"type":"Point","coordinates":[-2.8931,53.1934]}},{"type":"Feature","properties":{"Date":908,"Location":"Amounderness","Country":"England","Century":900,"Source":"Danes","Notes":"Lancashire","Location_Type":"County"},"geometry":{"type":"Point","coordinates":[-2.7044,53.7632]}},{"type":"Feature","properties":{"Date":908,"Location":"Cumbria","Country":"England","Century":900,"Source":"Danes","Notes":"","Location_Type":"County"},"geometry":{"type":"Point","coordinates":[-2.7975,54.5772]}},{"type":"Feature","properties":{"Date":910,"Location":"York","Country":"England","Century":900,"Source":"Danes","Notes":"","Location_Type":"City"},"geometry":{"type":"Point","coordinates":[-1.0873,53.96]}},{"type":"Feature","properties":{"Date":910,"Location":"Tettenhall","Country":"England","Century":900,"Source":"Danes","Notes":"","Location_Type":"City"},"geometry":{"type":"Point","coordinates":[-2.1607,52.5983]}},{"type":"Feature","properties":{"Date":911,"Location":"Upper Normandy","Country":"France","Century":900,"Source":"Danes","Notes":"Rollo granted rulership","Location_Type":"Region"},"geometry":{"type":"Point","coordinates":[0.1713,48.8799]}},{"type":"Feature","properties":{"Date":919,"Location":"Cheshire","Country":"England","Century":900,"Source":"Danes","Notes":"","Location_Type":"County"},"geometry":{"type":"Point","coordinates":[-2.6103,53.2326]}},{"type":"Feature","properties":{"Date":920,"Location":"Tempsford","Country":"England","Century":900,"Source":"Danes","Notes":"","Location_Type":"City"},"geometry":{"type":"Point","coordinates":[-0.2918,52.1706]}},{"type":"Feature","properties":{"Date":925,"Location":"Beauvais","Country":"France","Century":900,"Source":"Danes","Notes":"","Location_Type":"City"},"geometry":{"type":"Point","coordinates":[2.0807,49.4295]}},{"type":"Feature","properties":{"Date":925,"Location":"Amiens","Country":"France","Century":900,"Source":"Danes","Notes":"","Location_Type":"City"},"geometry":{"type":"Point","coordinates":[2.2958,49.8941]}},{"type":"Feature","properties":{"Date":929,"Location":"Kildare","Country":"Ireland","Century":900,"Source":"Danes","Notes":"","Location_Type":"City"},"geometry":{"type":"Point","coordinates":[-6.9096,53.1589]}},{"type":"Feature","properties":{"Date":936,"Location":"Clonmacnoise","Country":"Ireland","Century":900,"Source":"Danes","Notes":"","Location_Type":"Monastery"},"geometry":{"type":"Point","coordinates":[-7.9863,53.3263]}},{"type":"Feature","properties":{"Date":937,"Location":"Limerick","Country":"Ireland","Century":900,"Source":"Danes","Notes":"","Location_Type":"City"},"geometry":{"type":"Point","coordinates":[-8.6305,52.668]}},{"type":"Feature","properties":{"Date":939,"Location":"York","Country":"England","Century":900,"Source":"Danes","Notes":"","Location_Type":"City"},"geometry":{"type":"Point","coordinates":[-1.0873,53.96]}},{"type":"Feature","properties":{"Date":941,"Location":"Downpatrick","Country":"Ireland","Century":900,"Source":"Danes","Notes":"","Location_Type":"City"},"geometry":{"type":"Point","coordinates":[-5.7157,54.3288]}},{"type":"Feature","properties":{"Date":974,"Location":"Danevirke","Country":"Germany","Century":900,"Source":"Danes","Notes":"Schleswig-Holstein","Location_Type":"State"},"geometry":{"type":"Point","coordinates":[9.6961,54.2194]}},{"type":"Feature","properties":{"Date":980,"Location":"Isle of Thanet","Country":"England","Century":900,"Source":"Danes","Notes":"","Location_Type":"Province"},"geometry":{"type":"Point","coordinates":[0.5217,51.2787]}},{"type":"Feature","properties":{"Date":980,"Location":"Southampton","Country":"England","Century":900,"Source":"Danes","Notes":"","Location_Type":"City"},"geometry":{"type":"Point","coordinates":[-1.4044,50.9097]}},{"type":"Feature","properties":{"Date":987,"Location":"Dal Riada","Country":"Ireland","Century":900,"Source":"Danes","Notes":"Antrim","Location_Type":"State Entity"},"geometry":{"type":"Point","coordinates":[-6.2072,54.7195]}},{"type":"Feature","properties":{"Date":991,"Location":"Kent","Country":"England","Century":900,"Source":"Danes","Notes":"","Location_Type":"County"},"geometry":{"type":"Point","coordinates":[0.5217,51.2787]}},{"type":"Feature","properties":{"Date":991,"Location":"Northey Island","Country":"England","Century":900,"Source":"Danes","Notes":"","Location_Type":"Island"},"geometry":{"type":"Point","coordinates":[0.7218,51.7221]}},{"type":"Feature","properties":{"Date":1011,"Location":"Kent","Country":"England","Century":1000,"Source":"Danes","Notes":"","Location_Type":"County"},"geometry":{"type":"Point","coordinates":[0.5217,51.2787]}},{"type":"Feature","properties":{"Date":1011,"Location":"Canterbury","Country":"England","Century":1000,"Source":"Danes","Notes":"","Location_Type":"City"},"geometry":{"type":"Point","coordinates":[1.0789,51.2802]}},{"type":"Feature","properties":{"Date":1015,"Location":"Ashingdon","Country":"England","Century":1000,"Source":"Danes","Notes":"Essex","Location_Type":"City"},"geometry":{"type":"Point","coordinates":[0.6893,51.6153]}},{"type":"Feature","properties":{"Date":1028,"Location":"Orkney Islands","Country":"Scotland","Century":1000,"Source":"Danes","Notes":"","Location_Type":"Islands"},"geometry":{"type":"Point","coordinates":[-2.9605,58.9809]}},{"type":"Feature","properties":{"Date":1048,"Location":"Sandwich","Country":"England","Century":1000,"Source":"Danes","Notes":"","Location_Type":"City"},"geometry":{"type":"Point","coordinates":[1.3374,51.274]}},{"type":"Feature","properties":{"Date":1070,"Location":"Kent","Country":"England","Century":1000,"Source":"Danes","Notes":"To York","Location_Type":"County"},"geometry":{"type":"Point","coordinates":[0.5217,51.2787]}},{"type":"Feature","properties":{"Date":1075,"Location":"York","Country":"England","Century":1000,"Source":"Danes","Notes":"Northumbria","Location_Type":"City"},"geometry":{"type":"Point","coordinates":[-1.0873,53.96]}}]}