{"type":"FeatureCollection","features":[{"type":"Feature","properties":{"ID":1,"Date":789,"Raid_LocationDanes":"Northumberland","Country":"England","Source":"Danes","Notes":"","Place_Type":"Province","700_Century":"TRUE","800_Century":"FALSE","900_Century":"FALSE","1000_Century":"FALSE"},"geometry":{"type":"Point","coordinates":[-2.0784,55.2083]}},{"type":"Feature","properties":{"ID":2,"Date":793,"Raid_LocationDanes":"Lindisfarne","Country":"England","Source":"Danes","Notes":"Wearmouth and Jarrow","Place_Type":"City","700_Century":"TRUE","800_Century":"FALSE","900_Century":"FALSE","1000_Century":"FALSE"},"geometry":{"type":"Point","coordinates":[-1.3747,54.9133]}},{"type":"Feature","properties":{"ID":3,"Date":793,"Raid_LocationDanes":"Hamburg","Country":"Germany","Source":"Danes","Notes":"","Place_Type":"City","700_Century":"TRUE","800_Century":"FALSE","900_Century":"FALSE","1000_Century":"FALSE"},"geometry":{"type":"Point","coordinates":[9.9937,53.5511]}},{"type":"Feature","properties":{"ID":4,"Date":793,"Raid_LocationDanes":"Friesland","Country":"Netherlands","Source":"Danes","Notes":"Frisia","Place_Type":"Province","700_Century":"TRUE","800_Century":"FALSE","900_Century":"FALSE","1000_Century":"FALSE"},"geometry":{"type":"Point","coordinates":[5.7818,53.1642]}},{"type":"Feature","properties":{"ID":5,"Date":799,"Raid_LocationDanes":"Noirmoutier","Country":"France","Source":"Danes","Notes":"","Place_Type":"Island","700_Century":"TRUE","800_Century":"FALSE","900_Century":"FALSE","1000_Century":"FALSE"},"geometry":{"type":"Point","coordinates":[-2.2471,47.0011]}},{"type":"Feature","properties":{"ID":6,"Date":799,"Raid_LocationDanes":"Aquitaine","Country":"France","Source":"Danes","Notes":"Nouvelle-Aquitaine","Place_Type":"Region","700_Century":"TRUE","800_Century":"FALSE","900_Century":"FALSE","1000_Century":"FALSE"},"geometry":{"type":"Point","coordinates":[-0.2996,44.7002]}},{"type":"Feature","properties":{"ID":7,"Date":799,"Raid_LocationDanes":"Francia","Country":"France","Source":"Danes","Notes":"","Place_Type":"State Entity","700_Century":"TRUE","800_Century":"FALSE","900_Century":"FALSE","1000_Century":"FALSE"},"geometry":{"type":"Point","coordinates":[2.2137,46.2276]}},{"type":"Feature","properties":{"ID":8,"Date":802,"Raid_LocationDanes":"Wessex","Country":"England","Source":"Danes","Notes":"Glastonbury","Place_Type":"County","700_Century":"FALSE","800_Century":"TRUE","900_Century":"FALSE","1000_Century":"FALSE"},"geometry":{"type":"Point","coordinates":[-2.7185,51.1474]}},{"type":"Feature","properties":{"ID":9,"Date":810,"Raid_LocationDanes":"Frisia","Country":"Netherlands","Source":"Danes","Notes":"","Place_Type":"Province","700_Century":"FALSE","800_Century":"TRUE","900_Century":"FALSE","1000_Century":"FALSE"},"geometry":{"type":"Point","coordinates":[5.7818,53.1642]}},{"type":"Feature","properties":{"ID":10,"Date":834,"Raid_LocationDanes":"Dorestad","Country":"Netherlands","Source":"Danes","Notes":"","Place_Type":"City","700_Century":"FALSE","800_Century":"TRUE","900_Century":"FALSE","1000_Century":"FALSE"},"geometry":{"type":"Point","coordinates":[5.3384,51.9756]}},{"type":"Feature","properties":{"ID":11,"Date":834,"Raid_LocationDanes":"Frisia","Country":"Netherlands","Source":"Danes","Notes":"","Place_Type":"Province","700_Century":"FALSE","800_Century":"TRUE","900_Century":"FALSE","1000_Century":"FALSE"},"geometry":{"type":"Point","coordinates":[5.7818,53.1642]}},{"type":"Feature","properties":{"ID":12,"Date":835,"Raid_LocationDanes":"Dorestad","Country":"Netherlands","Source":"Danes","Notes":"","Place_Type":"City","700_Century":"FALSE","800_Century":"TRUE","900_Century":"FALSE","1000_Century":"FALSE"},"geometry":{"type":"Point","coordinates":[5.3384,51.9756]}},{"type":"Feature","properties":{"ID":13,"Date":835,"Raid_LocationDanes":"Isle of Sheppey","Country":"England","Source":"Danes","Notes":"","Place_Type":"Island","700_Century":"FALSE","800_Century":"TRUE","900_Century":"FALSE","1000_Century":"FALSE"},"geometry":{"type":"Point","coordinates":[0.8365,51.3965]}},{"type":"Feature","properties":{"ID":14,"Date":835,"Raid_LocationDanes":"Noirmoutier","Country":"France","Source":"Danes","Notes":"","Place_Type":"Island","700_Century":"FALSE","800_Century":"TRUE","900_Century":"FALSE","1000_Century":"FALSE"},"geometry":{"type":"Point","coordinates":[-2.2471,47.0011]}},{"type":"Feature","properties":{"ID":15,"Date":836,"Raid_LocationDanes":"Dorestad","Country":"Netherlands","Source":"Danes","Notes":"","Place_Type":"City","700_Century":"FALSE","800_Century":"TRUE","900_Century":"FALSE","1000_Century":"FALSE"},"geometry":{"type":"Point","coordinates":[5.3384,51.9756]}},{"type":"Feature","properties":{"ID":16,"Date":836,"Raid_LocationDanes":"Antwerp","Country":"Belgium","Source":"Danes","Notes":"Witla nearby?","Place_Type":"City","700_Century":"FALSE","800_Century":"TRUE","900_Century":"FALSE","1000_Century":"FALSE"},"geometry":{"type":"Point","coordinates":[4.4025,51.2194]}},{"type":"Feature","properties":{"ID":17,"Date":836,"Raid_LocationDanes":"Frisia","Country":"Netherlands","Source":"Danes","Notes":"","Place_Type":"Province","700_Century":"FALSE","800_Century":"TRUE","900_Century":"FALSE","1000_Century":"FALSE"},"geometry":{"type":"Point","coordinates":[5.7818,53.1642]}},{"type":"Feature","properties":{"ID":18,"Date":836,"Raid_LocationDanes":"Cornwall","Country":"England","Source":"Danes","Notes":"","Place_Type":"County","700_Century":"FALSE","800_Century":"TRUE","900_Century":"FALSE","1000_Century":"FALSE"},"geometry":{"type":"Point","coordinates":[-5.0527,50.266]}},{"type":"Feature","properties":{"ID":19,"Date":837,"Raid_LocationDanes":"Dorestad","Country":"Netherlands","Source":"Danes","Notes":"","Place_Type":"City","700_Century":"FALSE","800_Century":"TRUE","900_Century":"FALSE","1000_Century":"FALSE"},"geometry":{"type":"Point","coordinates":[5.3384,51.9756]}},{"type":"Feature","properties":{"ID":20,"Date":837,"Raid_LocationDanes":"Walcheren","Country":"Netherlands","Source":"Danes","Notes":"","Place_Type":"City","700_Century":"FALSE","800_Century":"TRUE","900_Century":"FALSE","1000_Century":"FALSE"},"geometry":{"type":"Point","coordinates":[5.1369,52.0604]}},{"type":"Feature","properties":{"ID":21,"Date":837,"Raid_LocationDanes":"Frisia","Country":"Netherlands","Source":"Danes","Notes":"","Place_Type":"Province","700_Century":"FALSE","800_Century":"TRUE","900_Century":"FALSE","1000_Century":"FALSE"},"geometry":{"type":"Point","coordinates":[5.7818,53.1642]}},{"type":"Feature","properties":{"ID":22,"Date":841,"Raid_LocationDanes":"Jumièges","Country":"France","Source":"Danes","Notes":"","Place_Type":"Abbey","700_Century":"FALSE","800_Century":"TRUE","900_Century":"FALSE","1000_Century":"FALSE"},"geometry":{"type":"Point","coordinates":[0.8191,49.4319]}},{"type":"Feature","properties":{"ID":23,"Date":841,"Raid_LocationDanes":"Rouen","Country":"France","Source":"Danes","Notes":"","Place_Type":"City","700_Century":"FALSE","800_Century":"TRUE","900_Century":"FALSE","1000_Century":"FALSE"},"geometry":{"type":"Point","coordinates":[1.1,49.4432]}},{"type":"Feature","properties":{"ID":24,"Date":842,"Raid_LocationDanes":"Quentovic","Country":"France","Source":"Danes","Notes":"Near Etaples","Place_Type":"City","700_Century":"FALSE","800_Century":"TRUE","900_Century":"FALSE","1000_Century":"FALSE"},"geometry":{"type":"Point","coordinates":[1.6388,50.5161]}},{"type":"Feature","properties":{"ID":25,"Date":842,"Raid_LocationDanes":"Rochester","Country":"England","Source":"Danes","Notes":"","Place_Type":"City","700_Century":"FALSE","800_Century":"TRUE","900_Century":"FALSE","1000_Century":"FALSE"},"geometry":{"type":"Point","coordinates":[0.5067,51.388]}},{"type":"Feature","properties":{"ID":26,"Date":842,"Raid_LocationDanes":"Nantes","Country":"France","Source":"Danes","Notes":"","Place_Type":"City","700_Century":"FALSE","800_Century":"TRUE","900_Century":"FALSE","1000_Century":"FALSE"},"geometry":{"type":"Point","coordinates":[-1.5536,47.2184]}},{"type":"Feature","properties":{"ID":27,"Date":842,"Raid_LocationDanes":"London","Country":"England","Source":"Danes","Notes":"","Place_Type":"City","700_Century":"FALSE","800_Century":"TRUE","900_Century":"FALSE","1000_Century":"FALSE"},"geometry":{"type":"Point","coordinates":[-0.1278,51.5074]}},{"type":"Feature","properties":{"ID":28,"Date":843,"Raid_LocationDanes":"Dorest","Country":"England","Source":"Danes","Notes":"","Place_Type":"City","700_Century":"FALSE","800_Century":"TRUE","900_Century":"FALSE","1000_Century":"FALSE"},"geometry":{"type":"Point","coordinates":[-2.3445,50.7488]}},{"type":"Feature","properties":{"ID":29,"Date":843,"Raid_LocationDanes":"Seville","Country":"Spain","Source":"Danes","Notes":"","Place_Type":"City","700_Century":"FALSE","800_Century":"TRUE","900_Century":"FALSE","1000_Century":"FALSE"},"geometry":{"type":"Point","coordinates":[-5.9845,37.3891]}},{"type":"Feature","properties":{"ID":30,"Date":845,"Raid_LocationDanes":"Hamburg","Country":"Germany","Source":"Danes","Notes":"","Place_Type":"City","700_Century":"FALSE","800_Century":"TRUE","900_Century":"FALSE","1000_Century":"FALSE"},"geometry":{"type":"Point","coordinates":[9.9937,53.5511]}},{"type":"Feature","properties":{"ID":31,"Date":845,"Raid_LocationDanes":"Paris","Country":"France","Source":"Danes","Notes":"","Place_Type":"City","700_Century":"FALSE","800_Century":"TRUE","900_Century":"FALSE","1000_Century":"FALSE"},"geometry":{"type":"Point","coordinates":[2.3522,48.8566]}},{"type":"Feature","properties":{"ID":32,"Date":848,"Raid_LocationDanes":"Bordeaux","Country":"France","Source":"Danes","Notes":"","Place_Type":"City","700_Century":"FALSE","800_Century":"TRUE","900_Century":"FALSE","1000_Century":"FALSE"},"geometry":{"type":"Point","coordinates":[-0.5792,44.8378]}},{"type":"Feature","properties":{"ID":33,"Date":850,"Raid_LocationDanes":"Isle of Thanet","Country":"England","Source":"Danes","Notes":"","Place_Type":"Province","700_Century":"FALSE","800_Century":"TRUE","900_Century":"FALSE","1000_Century":"FALSE"},"geometry":{"type":"Point","coordinates":[0.5217,51.2787]}},{"type":"Feature","properties":{"ID":34,"Date":851,"Raid_LocationDanes":"Dublin","Country":"Ireland","Source":"Danes","Notes":"","Place_Type":"City","700_Century":"FALSE","800_Century":"TRUE","900_Century":"FALSE","1000_Century":"FALSE"},"geometry":{"type":"Point","coordinates":[-6.2603,53.3498]}},{"type":"Feature","properties":{"ID":35,"Date":853,"Raid_LocationDanes":"Isle of Thanet","Country":"England","Source":"Danes","Notes":"","Place_Type":"Province","700_Century":"FALSE","800_Century":"TRUE","900_Century":"FALSE","1000_Century":"FALSE"},"geometry":{"type":"Point","coordinates":[0.5217,51.2787]}},{"type":"Feature","properties":{"ID":36,"Date":853,"Raid_LocationDanes":"Tours","Country":"France","Source":"Danes","Notes":"","Place_Type":"City","700_Century":"FALSE","800_Century":"TRUE","900_Century":"FALSE","1000_Century":"FALSE"},"geometry":{"type":"Point","coordinates":[0.6848,47.3941]}},{"type":"Feature","properties":{"ID":37,"Date":854,"Raid_LocationDanes":"Blois","Country":"France","Source":"Danes","Notes":"","Place_Type":"City","700_Century":"FALSE","800_Century":"TRUE","900_Century":"FALSE","1000_Century":"FALSE"},"geometry":{"type":"Point","coordinates":[1.3359,47.5861]}},{"type":"Feature","properties":{"ID":38,"Date":855,"Raid_LocationDanes":"Isle of Sheppey","Country":"England","Source":"Danes","Notes":"","Place_Type":"Island","700_Century":"FALSE","800_Century":"TRUE","900_Century":"FALSE","1000_Century":"FALSE"},"geometry":{"type":"Point","coordinates":[0.8365,51.3965]}},{"type":"Feature","properties":{"ID":39,"Date":857,"Raid_LocationDanes":"Paris","Country":"France","Source":"Danes","Notes":"","Place_Type":"City","700_Century":"FALSE","800_Century":"TRUE","900_Century":"FALSE","1000_Century":"FALSE"},"geometry":{"type":"Point","coordinates":[2.3522,48.8566]}},{"type":"Feature","properties":{"ID":40,"Date":858,"Raid_LocationDanes":"Bremen","Country":"Germany","Source":"Danes","Notes":"","Place_Type":"City","700_Century":"FALSE","800_Century":"TRUE","900_Century":"FALSE","1000_Century":"FALSE"},"geometry":{"type":"Point","coordinates":[8.8017,53.0793]}},{"type":"Feature","properties":{"ID":41,"Date":861,"Raid_LocationDanes":"Paris","Country":"France","Source":"Danes","Notes":"","Place_Type":"City","700_Century":"FALSE","800_Century":"TRUE","900_Century":"FALSE","1000_Century":"FALSE"},"geometry":{"type":"Point","coordinates":[2.3522,48.8566]}},{"type":"Feature","properties":{"ID":42,"Date":861,"Raid_LocationDanes":"Winchester","Country":"England","Source":"Danes","Notes":"","Place_Type":"City","700_Century":"FALSE","800_Century":"TRUE","900_Century":"FALSE","1000_Century":"FALSE"},"geometry":{"type":"Point","coordinates":[-1.3101,51.0598]}},{"type":"Feature","properties":{"ID":43,"Date":863,"Raid_LocationDanes":"Neuss","Country":"Germany","Source":"Danes","Notes":"","Place_Type":"City","700_Century":"FALSE","800_Century":"TRUE","900_Century":"FALSE","1000_Century":"FALSE"},"geometry":{"type":"Point","coordinates":[6.688,51.2042]}},{"type":"Feature","properties":{"ID":44,"Date":863,"Raid_LocationDanes":"Xanten","Country":"Germany","Source":"Danes","Notes":"","Place_Type":"City","700_Century":"FALSE","800_Century":"TRUE","900_Century":"FALSE","1000_Century":"FALSE"},"geometry":{"type":"Point","coordinates":[6.4487,51.6571]}},{"type":"Feature","properties":{"ID":45,"Date":865,"Raid_LocationDanes":"Fleury","Country":"France","Source":"Danes","Notes":"","Place_Type":"City","700_Century":"FALSE","800_Century":"TRUE","900_Century":"FALSE","1000_Century":"FALSE"},"geometry":{"type":"Point","coordinates":[2.3668,48.6307]}},{"type":"Feature","properties":{"ID":46,"Date":870,"Raid_LocationDanes":"Reading","Country":"England","Source":"Danes","Notes":"","Place_Type":"City","700_Century":"FALSE","800_Century":"TRUE","900_Century":"FALSE","1000_Century":"FALSE"},"geometry":{"type":"Point","coordinates":[-0.9781,51.4543]}},{"type":"Feature","properties":{"ID":47,"Date":870,"Raid_LocationDanes":"Ashdown","Country":"England","Source":"Danes","Notes":"","Place_Type":"City","700_Century":"FALSE","800_Century":"TRUE","900_Century":"FALSE","1000_Century":"FALSE"},"geometry":{"type":"Point","coordinates":[-1.088,50.8198]}},{"type":"Feature","properties":{"ID":48,"Date":870,"Raid_LocationDanes":"Basing","Country":"England","Source":"Danes","Notes":"","Place_Type":"City","700_Century":"FALSE","800_Century":"TRUE","900_Century":"FALSE","1000_Century":"FALSE"},"geometry":{"type":"Point","coordinates":[-1.0489,51.2712]}},{"type":"Feature","properties":{"ID":49,"Date":870,"Raid_LocationDanes":"Marlborough","Country":"England","Source":"Danes","Notes":"","Place_Type":"City","700_Century":"FALSE","800_Century":"TRUE","900_Century":"FALSE","1000_Century":"FALSE"},"geometry":{"type":"Point","coordinates":[-1.7271,51.4201]}},{"type":"Feature","properties":{"ID":50,"Date":870,"Raid_LocationDanes":"Wilton","Country":"England","Source":"Danes","Notes":"","Place_Type":"City","700_Century":"FALSE","800_Century":"TRUE","900_Century":"FALSE","1000_Century":"FALSE"},"geometry":{"type":"Point","coordinates":[-1.8626,51.079]}},{"type":"Feature","properties":{"ID":51,"Date":872,"Raid_LocationDanes":"Rhineland","Country":"Germany","Source":"Danes","Notes":"","Place_Type":"Province","700_Century":"FALSE","800_Century":"TRUE","900_Century":"FALSE","1000_Century":"FALSE"},"geometry":{"type":"Point","coordinates":[7.309,50.1183]}},{"type":"Feature","properties":{"ID":52,"Date":872,"Raid_LocationDanes":"London","Country":"England","Source":"Danes","Notes":"","Place_Type":"City","700_Century":"FALSE","800_Century":"TRUE","900_Century":"FALSE","1000_Century":"FALSE"},"geometry":{"type":"Point","coordinates":[-0.1278,51.5074]}},{"type":"Feature","properties":{"ID":53,"Date":873,"Raid_LocationDanes":"York","Country":"England","Source":"Danes","Notes":"","Place_Type":"City","700_Century":"FALSE","800_Century":"TRUE","900_Century":"FALSE","1000_Century":"FALSE"},"geometry":{"type":"Point","coordinates":[-1.0873,53.96]}},{"type":"Feature","properties":{"ID":54,"Date":873,"Raid_LocationDanes":"Torksey","Country":"England","Source":"Danes","Notes":"","Place_Type":"City","700_Century":"FALSE","800_Century":"TRUE","900_Century":"FALSE","1000_Century":"FALSE"},"geometry":{"type":"Point","coordinates":[-0.7426,53.3025]}},{"type":"Feature","properties":{"ID":55,"Date":873,"Raid_LocationDanes":"Repton","Country":"England","Source":"Danes","Notes":"","Place_Type":"City","700_Century":"FALSE","800_Century":"TRUE","900_Century":"FALSE","1000_Century":"FALSE"},"geometry":{"type":"Point","coordinates":[-1.5495,52.8387]}},{"type":"Feature","properties":{"ID":56,"Date":875,"Raid_LocationDanes":"Carlisle","Country":"England","Source":"Danes","Notes":"","Place_Type":"City","700_Century":"FALSE","800_Century":"TRUE","900_Century":"FALSE","1000_Century":"FALSE"},"geometry":{"type":"Point","coordinates":[-2.9329,54.8925]}},{"type":"Feature","properties":{"ID":57,"Date":875,"Raid_LocationDanes":"Hexham","Country":"England","Source":"Danes","Notes":"","Place_Type":"City","700_Century":"FALSE","800_Century":"TRUE","900_Century":"FALSE","1000_Century":"FALSE"},"geometry":{"type":"Point","coordinates":[-2.1121,54.9727]}},{"type":"Feature","properties":{"ID":58,"Date":875,"Raid_LocationDanes":"Lindisfarne","Country":"England","Source":"Danes","Notes":"","Place_Type":"City","700_Century":"FALSE","800_Century":"TRUE","900_Century":"FALSE","1000_Century":"FALSE"},"geometry":{"type":"Point","coordinates":[-1.3747,54.9133]}},{"type":"Feature","properties":{"ID":59,"Date":875,"Raid_LocationDanes":"York","Country":"England","Source":"Danes","Notes":"","Place_Type":"City","700_Century":"FALSE","800_Century":"TRUE","900_Century":"FALSE","1000_Century":"FALSE"},"geometry":{"type":"Point","coordinates":[-1.0873,53.96]}},{"type":"Feature","properties":{"ID":60,"Date":875,"Raid_LocationDanes":"Cambridge","Country":"England","Source":"Danes","Notes":"","Place_Type":"City","700_Century":"FALSE","800_Century":"TRUE","900_Century":"FALSE","1000_Century":"FALSE"},"geometry":{"type":"Point","coordinates":[0.1218,52.2053]}},{"type":"Feature","properties":{"ID":61,"Date":875,"Raid_LocationDanes":"Derby","Country":"England","Source":"Danes","Notes":"","Place_Type":"City","700_Century":"FALSE","800_Century":"TRUE","900_Century":"FALSE","1000_Century":"FALSE"},"geometry":{"type":"Point","coordinates":[-1.4746,52.9225]}},{"type":"Feature","properties":{"ID":62,"Date":875,"Raid_LocationDanes":"Wareham","Country":"England","Source":"Danes","Notes":"","Place_Type":"City","700_Century":"FALSE","800_Century":"TRUE","900_Century":"FALSE","1000_Century":"FALSE"},"geometry":{"type":"Point","coordinates":[-2.111,50.6878]}},{"type":"Feature","properties":{"ID":63,"Date":875,"Raid_LocationDanes":"Leicester","Country":"England","Source":"Danes","Notes":"","Place_Type":"City","700_Century":"FALSE","800_Century":"TRUE","900_Century":"FALSE","1000_Century":"FALSE"},"geometry":{"type":"Point","coordinates":[-1.1398,52.6369]}},{"type":"Feature","properties":{"ID":64,"Date":875,"Raid_LocationDanes":"Lincoln","Country":"England","Source":"Danes","Notes":"","Place_Type":"City","700_Century":"FALSE","800_Century":"TRUE","900_Century":"FALSE","1000_Century":"FALSE"},"geometry":{"type":"Point","coordinates":[-0.5406,53.2307]}},{"type":"Feature","properties":{"ID":65,"Date":875,"Raid_LocationDanes":"Nottinghamshire","Country":"England","Source":"Danes","Notes":"","Place_Type":"County","700_Century":"FALSE","800_Century":"TRUE","900_Century":"FALSE","1000_Century":"FALSE"},"geometry":{"type":"Point","coordinates":[-0.9936,53.1003]}},{"type":"Feature","properties":{"ID":66,"Date":875,"Raid_LocationDanes":"Stamford","Country":"England","Source":"Danes","Notes":"","Place_Type":"City","700_Century":"FALSE","800_Century":"TRUE","900_Century":"FALSE","1000_Century":"FALSE"},"geometry":{"type":"Point","coordinates":[-0.4802,52.6513]}},{"type":"Feature","properties":{"ID":67,"Date":877,"Raid_LocationDanes":"Gloucester","Country":"England","Source":"Danes","Notes":"","Place_Type":"City","700_Century":"FALSE","800_Century":"TRUE","900_Century":"FALSE","1000_Century":"FALSE"},"geometry":{"type":"Point","coordinates":[-2.2382,51.8642]}},{"type":"Feature","properties":{"ID":68,"Date":878,"Raid_LocationDanes":"Fulham","Country":"England","Source":"Danes","Notes":"","Place_Type":"City","700_Century":"FALSE","800_Century":"TRUE","900_Century":"FALSE","1000_Century":"FALSE"},"geometry":{"type":"Point","coordinates":[-0.2017,51.4773]}},{"type":"Feature","properties":{"ID":69,"Date":879,"Raid_LocationDanes":"Tongeren","Country":"Belgium","Source":"Danes","Notes":"","Place_Type":"City","700_Century":"FALSE","800_Century":"TRUE","900_Century":"FALSE","1000_Century":"FALSE"},"geometry":{"type":"Point","coordinates":[5.4745,50.7842]}},{"type":"Feature","properties":{"ID":70,"Date":882,"Raid_LocationDanes":"Aix","Country":"France","Source":"Danes","Notes":"Aix-en-Provence","Place_Type":"City","700_Century":"FALSE","800_Century":"TRUE","900_Century":"FALSE","1000_Century":"FALSE"},"geometry":{"type":"Point","coordinates":[5.4474,43.5297]}},{"type":"Feature","properties":{"ID":71,"Date":882,"Raid_LocationDanes":"Cologne","Country":"Germany","Source":"Danes","Notes":"","Place_Type":"City","700_Century":"FALSE","800_Century":"TRUE","900_Century":"FALSE","1000_Century":"FALSE"},"geometry":{"type":"Point","coordinates":[6.9603,50.9375]}},{"type":"Feature","properties":{"ID":72,"Date":882,"Raid_LocationDanes":"Liège","Country":"Belgium","Source":"Danes","Notes":"","Place_Type":"City","700_Century":"FALSE","800_Century":"TRUE","900_Century":"FALSE","1000_Century":"FALSE"},"geometry":{"type":"Point","coordinates":[5.5797,50.6326]}},{"type":"Feature","properties":{"ID":73,"Date":882,"Raid_LocationDanes":"Bayeux","Country":"France","Source":"Danes","Notes":"","Place_Type":"City","700_Century":"FALSE","800_Century":"TRUE","900_Century":"FALSE","1000_Century":"FALSE"},"geometry":{"type":"Point","coordinates":[-0.7031,49.2764]}},{"type":"Feature","properties":{"ID":74,"Date":882,"Raid_LocationDanes":"Soissons","Country":"France","Source":"Danes","Notes":"","Place_Type":"City","700_Century":"FALSE","800_Century":"TRUE","900_Century":"FALSE","1000_Century":"FALSE"},"geometry":{"type":"Point","coordinates":[3.3234,49.3766]}},{"type":"Feature","properties":{"ID":75,"Date":882,"Raid_LocationDanes":"Trier","Country":"Germany","Source":"Danes","Notes":"","Place_Type":"City","700_Century":"FALSE","800_Century":"TRUE","900_Century":"FALSE","1000_Century":"FALSE"},"geometry":{"type":"Point","coordinates":[6.6371,49.75]}},{"type":"Feature","properties":{"ID":76,"Date":882,"Raid_LocationDanes":"Elsloo","Country":"Netherlands","Source":"Danes","Notes":"","Place_Type":"City","700_Century":"FALSE","800_Century":"TRUE","900_Century":"FALSE","1000_Century":"FALSE"},"geometry":{"type":"Point","coordinates":[5.7697,50.9485]}},{"type":"Feature","properties":{"ID":77,"Date":884,"Raid_LocationDanes":"Louvain","Country":"Belgium","Source":"Danes","Notes":"Leuven","Place_Type":"City","700_Century":"FALSE","800_Century":"TRUE","900_Century":"FALSE","1000_Century":"FALSE"},"geometry":{"type":"Point","coordinates":[4.7005,50.8798]}},{"type":"Feature","properties":{"ID":78,"Date":884,"Raid_LocationDanes":"Rochester","Country":"England","Source":"Danes","Notes":"","Place_Type":"City","700_Century":"FALSE","800_Century":"TRUE","900_Century":"FALSE","1000_Century":"FALSE"},"geometry":{"type":"Point","coordinates":[0.5067,51.388]}},{"type":"Feature","properties":{"ID":79,"Date":884,"Raid_LocationDanes":"Kent","Country":"England","Source":"Danes","Notes":"","Place_Type":"County","700_Century":"FALSE","800_Century":"TRUE","900_Century":"FALSE","1000_Century":"FALSE"},"geometry":{"type":"Point","coordinates":[0.5217,51.2787]}},{"type":"Feature","properties":{"ID":80,"Date":885,"Raid_LocationDanes":"Pont-de-l'Arche","Country":"France","Source":"Danes","Notes":"","Place_Type":"City","700_Century":"FALSE","800_Century":"TRUE","900_Century":"FALSE","1000_Century":"FALSE"},"geometry":{"type":"Point","coordinates":[1.1582,49.3034]}},{"type":"Feature","properties":{"ID":81,"Date":885,"Raid_LocationDanes":"Paris","Country":"France","Source":"Danes","Notes":"","Place_Type":"City","700_Century":"FALSE","800_Century":"TRUE","900_Century":"FALSE","1000_Century":"FALSE"},"geometry":{"type":"Point","coordinates":[2.3522,48.8566]}},{"type":"Feature","properties":{"ID":82,"Date":886,"Raid_LocationDanes":"Burgundy","Country":"France","Source":"Danes","Notes":"","Place_Type":"City","700_Century":"FALSE","800_Century":"TRUE","900_Century":"FALSE","1000_Century":"FALSE"},"geometry":{"type":"Point","coordinates":[4.3837,47.0525]}},{"type":"Feature","properties":{"ID":83,"Date":888,"Raid_LocationDanes":"Montfaucon","Country":"France","Source":"Danes","Notes":"","Place_Type":"City","700_Century":"FALSE","800_Century":"TRUE","900_Century":"FALSE","1000_Century":"FALSE"},"geometry":{"type":"Point","coordinates":[-0.0688,48.0067]}},{"type":"Feature","properties":{"ID":84,"Date":889,"Raid_LocationDanes":"Paris","Country":"France","Source":"Danes","Notes":"","Place_Type":"City","700_Century":"FALSE","800_Century":"TRUE","900_Century":"FALSE","1000_Century":"FALSE"},"geometry":{"type":"Point","coordinates":[2.3522,48.8566]}},{"type":"Feature","properties":{"ID":85,"Date":889,"Raid_LocationDanes":"St-Lô","Country":"France","Source":"Danes","Notes":"","Place_Type":"City","700_Century":"FALSE","800_Century":"TRUE","900_Century":"FALSE","1000_Century":"FALSE"},"geometry":{"type":"Point","coordinates":[-1.0828,49.1155]}},{"type":"Feature","properties":{"ID":86,"Date":895,"Raid_LocationDanes":"Shetland Islands","Country":"Scotland","Source":"Danes","Notes":"","Place_Type":"Islands","700_Century":"FALSE","800_Century":"TRUE","900_Century":"FALSE","1000_Century":"FALSE"},"geometry":{"type":"Point","coordinates":[-1.2659,60.5297]}},{"type":"Feature","properties":{"ID":87,"Date":891,"Raid_LocationDanes":"Leuven","Country":"Belgium","Source":"Danes","Notes":"","Place_Type":"City","700_Century":"FALSE","800_Century":"TRUE","900_Century":"FALSE","1000_Century":"FALSE"},"geometry":{"type":"Point","coordinates":[4.7005,50.8789]}},{"type":"Feature","properties":{"ID":88,"Date":908,"Raid_LocationDanes":"Wirral","Country":"England","Source":"Danes","Notes":"","Place_Type":"Borough","700_Century":"FALSE","800_Century":"FALSE","900_Century":"TRUE","1000_Century":"FALSE"},"geometry":{"type":"Point","coordinates":[-3.0738,53.3727]}},{"type":"Feature","properties":{"ID":89,"Date":908,"Raid_LocationDanes":"Chester","Country":"England","Source":"Danes","Notes":"","Place_Type":"City","700_Century":"FALSE","800_Century":"FALSE","900_Century":"TRUE","1000_Century":"FALSE"},"geometry":{"type":"Point","coordinates":[-2.8931,53.1934]}},{"type":"Feature","properties":{"ID":90,"Date":908,"Raid_LocationDanes":"Amounderness","Country":"England","Source":"Danes","Notes":"Lancashire","Place_Type":"County","700_Century":"FALSE","800_Century":"FALSE","900_Century":"TRUE","1000_Century":"FALSE"},"geometry":{"type":"Point","coordinates":[-2.7044,53.7632]}},{"type":"Feature","properties":{"ID":91,"Date":908,"Raid_LocationDanes":"Cumbria","Country":"England","Source":"Danes","Notes":"","Place_Type":"County","700_Century":"FALSE","800_Century":"FALSE","900_Century":"TRUE","1000_Century":"FALSE"},"geometry":{"type":"Point","coordinates":[-2.7975,54.5772]}},{"type":"Feature","properties":{"ID":92,"Date":910,"Raid_LocationDanes":"York","Country":"England","Source":"Danes","Notes":"","Place_Type":"City","700_Century":"FALSE","800_Century":"FALSE","900_Century":"TRUE","1000_Century":"FALSE"},"geometry":{"type":"Point","coordinates":[-1.0873,53.96]}},{"type":"Feature","properties":{"ID":93,"Date":910,"Raid_LocationDanes":"Tettenhall","Country":"England","Source":"Danes","Notes":"","Place_Type":"City","700_Century":"FALSE","800_Century":"FALSE","900_Century":"TRUE","1000_Century":"FALSE"},"geometry":{"type":"Point","coordinates":[-2.1607,52.5983]}},{"type":"Feature","properties":{"ID":94,"Date":911,"Raid_LocationDanes":"Upper Normandy","Country":"France","Source":"Danes","Notes":"Rollo granted rulership","Place_Type":"Region","700_Century":"FALSE","800_Century":"FALSE","900_Century":"TRUE","1000_Century":"FALSE"},"geometry":{"type":"Point","coordinates":[0.1713,48.8799]}},{"type":"Feature","properties":{"ID":95,"Date":919,"Raid_LocationDanes":"Cheshire","Country":"England","Source":"Danes","Notes":"","Place_Type":"County","700_Century":"FALSE","800_Century":"FALSE","900_Century":"TRUE","1000_Century":"FALSE"},"geometry":{"type":"Point","coordinates":[-2.6103,53.2326]}},{"type":"Feature","properties":{"ID":96,"Date":920,"Raid_LocationDanes":"Tempsford","Country":"England","Source":"Danes","Notes":"","Place_Type":"City","700_Century":"FALSE","800_Century":"FALSE","900_Century":"TRUE","1000_Century":"FALSE"},"geometry":{"type":"Point","coordinates":[-0.2918,52.1706]}},{"type":"Feature","properties":{"ID":97,"Date":925,"Raid_LocationDanes":"Beauvais","Country":"France","Source":"Danes","Notes":"","Place_Type":"City","700_Century":"FALSE","800_Century":"FALSE","900_Century":"TRUE","1000_Century":"FALSE"},"geometry":{"type":"Point","coordinates":[2.0807,49.4295]}},{"type":"Feature","properties":{"ID":98,"Date":925,"Raid_LocationDanes":"Amiens","Country":"France","Source":"Danes","Notes":"","Place_Type":"City","700_Century":"FALSE","800_Century":"FALSE","900_Century":"TRUE","1000_Century":"FALSE"},"geometry":{"type":"Point","coordinates":[2.2958,49.8941]}},{"type":"Feature","properties":{"ID":99,"Date":929,"Raid_LocationDanes":"Kildare","Country":"Ireland","Source":"Danes","Notes":"","Place_Type":"City","700_Century":"FALSE","800_Century":"FALSE","900_Century":"TRUE","1000_Century":"FALSE"},"geometry":{"type":"Point","coordinates":[-6.9096,53.1589]}},{"type":"Feature","properties":{"ID":100,"Date":936,"Raid_LocationDanes":"Clonmacnoise","Country":"Ireland","Source":"Danes","Notes":"","Place_Type":"Monastery","700_Century":"FALSE","800_Century":"FALSE","900_Century":"TRUE","1000_Century":"FALSE"},"geometry":{"type":"Point","coordinates":[-7.9863,53.3263]}},{"type":"Feature","properties":{"ID":101,"Date":937,"Raid_LocationDanes":"Limerick","Country":"Ireland","Source":"Danes","Notes":"","Place_Type":"City","700_Century":"FALSE","800_Century":"FALSE","900_Century":"TRUE","1000_Century":"FALSE"},"geometry":{"type":"Point","coordinates":[-8.6305,52.668]}},{"type":"Feature","properties":{"ID":102,"Date":939,"Raid_LocationDanes":"York","Country":"England","Source":"Danes","Notes":"","Place_Type":"City","700_Century":"FALSE","800_Century":"FALSE","900_Century":"TRUE","1000_Century":"FALSE"},"geometry":{"type":"Point","coordinates":[-1.0873,53.96]}},{"type":"Feature","properties":{"ID":103,"Date":941,"Raid_LocationDanes":"Downpatrick","Country":"Ireland","Source":"Danes","Notes":"","Place_Type":"City","700_Century":"FALSE","800_Century":"FALSE","900_Century":"TRUE","1000_Century":"FALSE"},"geometry":{"type":"Point","coordinates":[-5.7157,54.3288]}},{"type":"Feature","properties":{"ID":104,"Date":974,"Raid_LocationDanes":"Danevirke","Country":"Germany","Source":"Danes","Notes":"Schleswig-Holstein","Place_Type":"State","700_Century":"FALSE","800_Century":"FALSE","900_Century":"TRUE","1000_Century":"FALSE"},"geometry":{"type":"Point","coordinates":[9.6961,54.2194]}},{"type":"Feature","properties":{"ID":105,"Date":980,"Raid_LocationDanes":"Isle of Thanet","Country":"England","Source":"Danes","Notes":"","Place_Type":"Province","700_Century":"FALSE","800_Century":"FALSE","900_Century":"TRUE","1000_Century":"FALSE"},"geometry":{"type":"Point","coordinates":[0.5217,51.2787]}},{"type":"Feature","properties":{"ID":106,"Date":980,"Raid_LocationDanes":"Southampton","Country":"England","Source":"Danes","Notes":"","Place_Type":"City","700_Century":"FALSE","800_Century":"FALSE","900_Century":"TRUE","1000_Century":"FALSE"},"geometry":{"type":"Point","coordinates":[-1.4044,50.9097]}},{"type":"Feature","properties":{"ID":107,"Date":987,"Raid_LocationDanes":"Dal Riada","Country":"Ireland","Source":"Danes","Notes":"Antrim","Place_Type":"State Entity","700_Century":"FALSE","800_Century":"FALSE","900_Century":"TRUE","1000_Century":"FALSE"},"geometry":{"type":"Point","coordinates":[-6.2072,54.7195]}},{"type":"Feature","properties":{"ID":108,"Date":991,"Raid_LocationDanes":"Kent","Country":"England","Source":"Danes","Notes":"","Place_Type":"County","700_Century":"FALSE","800_Century":"FALSE","900_Century":"TRUE","1000_Century":"FALSE"},"geometry":{"type":"Point","coordinates":[0.5217,51.2787]}},{"type":"Feature","properties":{"ID":109,"Date":991,"Raid_LocationDanes":"Northey Island","Country":"England","Source":"Danes","Notes":"","Place_Type":"Island","700_Century":"FALSE","800_Century":"FALSE","900_Century":"TRUE","1000_Century":"FALSE"},"geometry":{"type":"Point","coordinates":[0.7218,51.7221]}},{"type":"Feature","properties":{"ID":110,"Date":1011,"Raid_LocationDanes":"Kent","Country":"England","Source":"Danes","Notes":"","Place_Type":"County","700_Century":"FALSE","800_Century":"FALSE","900_Century":"FALSE","1000_Century":"TRUE"},"geometry":{"type":"Point","coordinates":[0.5217,51.2787]}},{"type":"Feature","properties":{"ID":111,"Date":1011,"Raid_LocationDanes":"Canterbury","Country":"England","Source":"Danes","Notes":"","Place_Type":"City","700_Century":"FALSE","800_Century":"FALSE","900_Century":"FALSE","1000_Century":"TRUE"},"geometry":{"type":"Point","coordinates":[1.0789,51.2802]}},{"type":"Feature","properties":{"ID":112,"Date":1015,"Raid_LocationDanes":"Ashingdon","Country":"England","Source":"Danes","Notes":"Essex","Place_Type":"City","700_Century":"FALSE","800_Century":"FALSE","900_Century":"FALSE","1000_Century":"TRUE"},"geometry":{"type":"Point","coordinates":[0.6893,51.6153]}},{"type":"Feature","properties":{"ID":113,"Date":1028,"Raid_LocationDanes":"Orkney Islands","Country":"Scotland","Source":"Danes","Notes":"","Place_Type":"Islands","700_Century":"FALSE","800_Century":"FALSE","900_Century":"FALSE","1000_Century":"TRUE"},"geometry":{"type":"Point","coordinates":[-2.9605,58.9809]}},{"type":"Feature","properties":{"ID":114,"Date":1048,"Raid_LocationDanes":"Sandwich","Country":"England","Source":"Danes","Notes":"","Place_Type":"City","700_Century":"FALSE","800_Century":"FALSE","900_Century":"FALSE","1000_Century":"TRUE"},"geometry":{"type":"Point","coordinates":[1.3374,51.274]}},{"type":"Feature","properties":{"ID":115,"Date":1070,"Raid_LocationDanes":"Kent","Country":"England","Source":"Danes","Notes":"To York","Place_Type":"County","700_Century":"FALSE","800_Century":"FALSE","900_Century":"FALSE","1000_Century":"TRUE"},"geometry":{"type":"Point","coordinates":[0.5217,51.2787]}},{"type":"Feature","properties":{"ID":116,"Date":1075,"Raid_LocationDanes":"York","Country":"England","Source":"Danes","Notes":"Northumbria","Place_Type":"City","700_Century":"FALSE","800_Century":"FALSE","900_Century":"FALSE","1000_Century":"TRUE"},"geometry":{"type":"Point","coordinates":[-1.0873,53.96]}}]}