{"type":"FeatureCollection","features":[{"type":"Feature","properties":{"Raid_Date":700,"Raid_Location_Swedes":"Gotland","Raid_Country":"Sweden","Raid_Century":700,"Raid_Place":"Swedes","Raid_Notes":"Settlement","Raid_PlaceType":"Island"},"geometry":{"type":"Point","coordinates":[18.4867,57.4684]}},{"type":"Feature","properties":{"Raid_Date":780,"Raid_Location_Swedes":"Birka","Raid_Country":"Sweden","Raid_Century":700,"Raid_Place":"Swedes","Raid_Notes":"Settlement; Björkö, Ekerö","Raid_PlaceType":"Island"},"geometry":{"type":"Point","coordinates":[17.5667,59.326]}},{"type":"Feature","properties":{"Raid_Date":800,"Raid_Location_Swedes":"Staraja Ladoga","Raid_Country":"Russia","Raid_Century":800,"Raid_Place":"Swedes","Raid_Notes":"Settlement; Staraya Ladoga","Raid_PlaceType":"City"},"geometry":{"type":"Point","coordinates":[32.2926,60.0016]}},{"type":"Feature","properties":{"Raid_Date":800,"Raid_Location_Swedes":"Novgorod","Raid_Country":"Russia","Raid_Century":800,"Raid_Place":"Swedes","Raid_Notes":"Settlement","Raid_PlaceType":"City"},"geometry":{"type":"Point","coordinates":[31.2742,58.5256]}},{"type":"Feature","properties":{"Raid_Date":808,"Raid_Location_Swedes":"Hedeby","Raid_Country":"Germany","Raid_Century":800,"Raid_Place":"Swedes","Raid_Notes":"Settlement; Schleswig","Raid_PlaceType":"City"},"geometry":{"type":"Point","coordinates":[9.5632,54.5239]}},{"type":"Feature","properties":{"Raid_Date":850,"Raid_Location_Swedes":"Seeburg","Raid_Country":"Germany","Raid_Century":800,"Raid_Place":"Swedes","Raid_Notes":"","Raid_PlaceType":"City"},"geometry":{"type":"Point","coordinates":[11.6993,51.4885]}},{"type":"Feature","properties":{"Raid_Date":850,"Raid_Location_Swedes":"Apulia","Raid_Country":"Italy","Raid_Century":800,"Raid_Place":"Swedes","Raid_Notes":"","Raid_PlaceType":"City"},"geometry":{"type":"Point","coordinates":[17.1012,40.7928]}},{"type":"Feature","properties":{"Raid_Date":850,"Raid_Location_Swedes":"Beloozero","Raid_Country":"Russia","Raid_Century":800,"Raid_Place":"Swedes","Raid_Notes":"Belozersk; Settlement","Raid_PlaceType":"City"},"geometry":{"type":"Point","coordinates":[37.8057,60.0299]}},{"type":"Feature","properties":{"Raid_Date":861,"Raid_Location_Swedes":"Navarre","Raid_Country":"Spain","Raid_Century":800,"Raid_Place":"Swedes","Raid_Notes":"","Raid_PlaceType":"Region"},"geometry":{"type":"Point","coordinates":[-1.6761,42.6954]}},{"type":"Feature","properties":{"Raid_Date":861,"Raid_Location_Swedes":"Valence","Raid_Country":"France","Raid_Century":800,"Raid_Place":"Swedes","Raid_Notes":"","Raid_PlaceType":"City"},"geometry":{"type":"Point","coordinates":[4.8924,44.9334]}},{"type":"Feature","properties":{"Raid_Date":861,"Raid_Location_Swedes":"Pamplona","Raid_Country":"Spain","Raid_Century":800,"Raid_Place":"Swedes","Raid_Notes":"","Raid_PlaceType":"City"},"geometry":{"type":"Point","coordinates":[-1.6458,42.8125]}},{"type":"Feature","properties":{"Raid_Date":861,"Raid_Location_Swedes":"Algeciras","Raid_Country":"Spain","Raid_Century":800,"Raid_Place":"Swedes","Raid_Notes":"","Raid_PlaceType":"City"},"geometry":{"type":"Point","coordinates":[-5.4562,36.1408]}},{"type":"Feature","properties":{"Raid_Date":861,"Raid_Location_Swedes":"Nîmes","Raid_Country":"France","Raid_Century":800,"Raid_Place":"Swedes","Raid_Notes":"","Raid_PlaceType":"City"},"geometry":{"type":"Point","coordinates":[4.3601,43.8367]}},{"type":"Feature","properties":{"Raid_Date":861,"Raid_Location_Swedes":"Balearic Islands","Raid_Country":"Spain","Raid_Century":800,"Raid_Place":"Swedes","Raid_Notes":"","Raid_PlaceType":"City"},"geometry":{"type":"Point","coordinates":[3.0176,39.6953]}},{"type":"Feature","properties":{"Raid_Date":861,"Raid_Location_Swedes":"Murcia","Raid_Country":"Spain","Raid_Century":800,"Raid_Place":"Swedes","Raid_Notes":"","Raid_PlaceType":"City"},"geometry":{"type":"Point","coordinates":[-1.1307,37.9922]}},{"type":"Feature","properties":{"Raid_Date":861,"Raid_Location_Swedes":"Roussillon","Raid_Country":"France","Raid_Century":800,"Raid_Place":"Swedes","Raid_Notes":"","Raid_PlaceType":"City"},"geometry":{"type":"Point","coordinates":[5.2929,43.9023]}},{"type":"Feature","properties":{"Raid_Date":861,"Raid_Location_Swedes":"Narbonne","Raid_Country":"France","Raid_Century":800,"Raid_Place":"Swedes","Raid_Notes":"","Raid_PlaceType":"City"},"geometry":{"type":"Point","coordinates":[3.0031,43.1843]}},{"type":"Feature","properties":{"Raid_Date":861,"Raid_Location_Swedes":"Camargue","Raid_Country":"France","Raid_Century":800,"Raid_Place":"Swedes","Raid_Notes":"","Raid_PlaceType":"City"},"geometry":{"type":"Point","coordinates":[4.469,43.5939]}},{"type":"Feature","properties":{"Raid_Date":861,"Raid_Location_Swedes":"Côte d'Azur","Raid_Country":"France","Raid_Century":800,"Raid_Place":"Swedes","Raid_Notes":"French Riviera","Raid_PlaceType":"Coast"},"geometry":{"type":"Point","coordinates":[6.6379,43.2548]}},{"type":"Feature","properties":{"Raid_Date":861,"Raid_Location_Swedes":"Pisa","Raid_Country":"Italy","Raid_Century":800,"Raid_Place":"Swedes","Raid_Notes":"","Raid_PlaceType":"City"},"geometry":{"type":"Point","coordinates":[12.5674,41.8719]}},{"type":"Feature","properties":{"Raid_Date":861,"Raid_Location_Swedes":"Alexandria","Raid_Country":"Egypt","Raid_Century":800,"Raid_Place":"Swedes","Raid_Notes":"","Raid_PlaceType":"City"},"geometry":{"type":"Point","coordinates":[29.9187,31.2]}},{"type":"Feature","properties":{"Raid_Date":861,"Raid_Location_Swedes":"Luna","Raid_Country":"Italy","Raid_Century":800,"Raid_Place":"Swedes","Raid_Notes":"Near Rome","Raid_PlaceType":"City"},"geometry":{"type":"Point","coordinates":[12.4964,41.9028]}},{"type":"Feature","properties":{"Raid_Date":861,"Raid_Location_Swedes":"Arles","Raid_Country":"France","Raid_Century":800,"Raid_Place":"Swedes","Raid_Notes":"","Raid_PlaceType":"City"},"geometry":{"type":"Point","coordinates":[4.6278,43.6766]}},{"type":"Feature","properties":{"Raid_Date":862,"Raid_Location_Swedes":"Mazimma","Raid_Country":"Morocco","Raid_Century":800,"Raid_Place":"Swedes","Raid_Notes":"Al Hoceima","Raid_PlaceType":"City"},"geometry":{"type":"Point","coordinates":[-3.9317,35.2446]}},{"type":"Feature","properties":{"Raid_Date":862,"Raid_Location_Swedes":"Fiesole","Raid_Country":"Italy","Raid_Century":800,"Raid_Place":"Swedes","Raid_Notes":"","Raid_PlaceType":"City"},"geometry":{"type":"Point","coordinates":[11.2932,43.8065]}},{"type":"Feature","properties":{"Raid_Date":862,"Raid_Location_Swedes":"Valence","Raid_Country":"France","Raid_Century":800,"Raid_Place":"Swedes","Raid_Notes":"","Raid_PlaceType":"City"},"geometry":{"type":"Point","coordinates":[4.8924,44.9334]}},{"type":"Feature","properties":{"Raid_Date":870,"Raid_Location_Swedes":"Abasgun","Raid_Country":"Iran","Raid_Century":800,"Raid_Place":"Swedes","Raid_Notes":"Abaskun; approx. Babolsar","Raid_PlaceType":"City"},"geometry":{"type":"Point","coordinates":[52.6547,36.7049]}},{"type":"Feature","properties":{"Raid_Date":900,"Raid_Location_Swedes":"Gnyozdovo","Raid_Country":"Russia","Raid_Century":900,"Raid_Place":"Swedes","Raid_Notes":"Settlement; Gnezdovo","Raid_PlaceType":"City"},"geometry":{"type":"Point","coordinates":[31.8658,54.7848]}},{"type":"Feature","properties":{"Raid_Date":907,"Raid_Location_Swedes":"Constantinople","Raid_Country":"Turkey","Raid_Century":900,"Raid_Place":"Swedes","Raid_Notes":"","Raid_PlaceType":"City"},"geometry":{"type":"Point","coordinates":[28.9784,41.0082]}},{"type":"Feature","properties":{"Raid_Date":910,"Raid_Location_Swedes":"Abasgun","Raid_Country":"Iran","Raid_Century":900,"Raid_Place":"Swedes","Raid_Notes":"Abaskun; approx. Babolsar","Raid_PlaceType":"City"},"geometry":{"type":"Point","coordinates":[52.6547,36.7049]}},{"type":"Feature","properties":{"Raid_Date":912,"Raid_Location_Swedes":"Baku","Raid_Country":"Azerbaijan","Raid_Century":900,"Raid_Place":"Swedes","Raid_Notes":"","Raid_PlaceType":"City"},"geometry":{"type":"Point","coordinates":[49.8671,40.4093]}},{"type":"Feature","properties":{"Raid_Date":912,"Raid_Location_Swedes":"Abasgun","Raid_Country":"Iran","Raid_Century":900,"Raid_Place":"Swedes","Raid_Notes":"","Raid_PlaceType":"City"},"geometry":{"type":"Point","coordinates":[52.6547,36.7049]}},{"type":"Feature","properties":{"Raid_Date":920,"Raid_Location_Swedes":"Abaskun","Raid_Country":"Iran","Raid_Century":900,"Raid_Place":"Swedes","Raid_Notes":"Abaskun; approx. Babolsar","Raid_PlaceType":"City"},"geometry":{"type":"Point","coordinates":[54,37.0166]}},{"type":"Feature","properties":{"Raid_Date":920,"Raid_Location_Swedes":"Tabaristan","Raid_Country":"Iran","Raid_Century":900,"Raid_Place":"Swedes","Raid_Notes":"Sari","Raid_PlaceType":"City"},"geometry":{"type":"Point","coordinates":[53.0586,36.5659]}},{"type":"Feature","properties":{"Raid_Date":941,"Raid_Location_Swedes":"Constantinople","Raid_Country":"Turkey","Raid_Century":900,"Raid_Place":"Swedes","Raid_Notes":"","Raid_PlaceType":"City"},"geometry":{"type":"Point","coordinates":[28.9784,41.0082]}},{"type":"Feature","properties":{"Raid_Date":941,"Raid_Location_Swedes":"Heraclea","Raid_Country":"Turkey","Raid_Century":900,"Raid_Place":"Swedes","Raid_Notes":"","Raid_PlaceType":"City"},"geometry":{"type":"Point","coordinates":[27.9566,40.9691]}},{"type":"Feature","properties":{"Raid_Date":941,"Raid_Location_Swedes":"Nicomedia","Raid_Country":"Turkey","Raid_Century":900,"Raid_Place":"Swedes","Raid_Notes":"Nicodemia?","Raid_PlaceType":"City"},"geometry":{"type":"Point","coordinates":[29.9169,40.7669]}},{"type":"Feature","properties":{"Raid_Date":941,"Raid_Location_Swedes":"Baku","Raid_Country":"Azerbaijan","Raid_Century":900,"Raid_Place":"Swedes","Raid_Notes":"","Raid_PlaceType":"City"},"geometry":{"type":"Point","coordinates":[49.8671,40.4093]}},{"type":"Feature","properties":{"Raid_Date":945,"Raid_Location_Swedes":"Constantinople","Raid_Country":"Turkey","Raid_Century":900,"Raid_Place":"Swedes","Raid_Notes":"","Raid_PlaceType":"City"},"geometry":{"type":"Point","coordinates":[28.9784,41.0082]}},{"type":"Feature","properties":{"Raid_Date":960,"Raid_Location_Swedes":"Sigtuna","Raid_Country":"Sweden","Raid_Century":900,"Raid_Place":"Swedes","Raid_Notes":"Settlement","Raid_PlaceType":"City"},"geometry":{"type":"Point","coordinates":[17.7234,59.6191]}},{"type":"Feature","properties":{"Raid_Date":968,"Raid_Location_Swedes":"Atil","Raid_Country":"Russia","Raid_Century":900,"Raid_Place":"Swedes","Raid_Notes":"Khazar capital; unsure","Raid_PlaceType":"City"},"geometry":{"type":"Point","coordinates":[47.8386,46.0218]}},{"type":"Feature","properties":{"Raid_Date":1010,"Raid_Location_Swedes":"Norfolk","Raid_Country":"England","Raid_Century":1000,"Raid_Place":"Swedes","Raid_Notes":"","Raid_PlaceType":"County"},"geometry":{"type":"Point","coordinates":[0.8864,52.614]}}]}