{"type":"FeatureCollection","features":[{"type":"Feature","properties":{"ID":1,"Date":700,"Raid_LocationSwedes":"Gotland","Country":"Sweden","Source":"Swedes","Notes":"Settlement","Place_Type":"Island","700_Century":"TRUE","800_Century":"FALSE","900_Century":"FALSE","1000_Century":"FALSE"},"geometry":{"type":"Point","coordinates":[18.4867,57.4684]}},{"type":"Feature","properties":{"ID":2,"Date":780,"Raid_LocationSwedes":"Birka","Country":"Sweden","Source":"Swedes","Notes":"Settlement; Björkö, Ekerö","Place_Type":"Island","700_Century":"TRUE","800_Century":"FALSE","900_Century":"FALSE","1000_Century":"FALSE"},"geometry":{"type":"Point","coordinates":[17.5667,59.326]}},{"type":"Feature","properties":{"ID":3,"Date":800,"Raid_LocationSwedes":"Staraja Ladoga","Country":"Russia","Source":"Swedes","Notes":"Settlement; Staraya Ladoga","Place_Type":"City","700_Century":800,"800_Century":"TRUE","900_Century":"FALSE","1000_Century":"FALSE"},"geometry":{"type":"Point","coordinates":[32.2926,60.0016]}},{"type":"Feature","properties":{"ID":4,"Date":800,"Raid_LocationSwedes":"Novgorod","Country":"Russia","Source":"Swedes","Notes":"Settlement","Place_Type":"City","700_Century":800,"800_Century":"TRUE","900_Century":"FALSE","1000_Century":"FALSE"},"geometry":{"type":"Point","coordinates":[31.2742,58.5256]}},{"type":"Feature","properties":{"ID":5,"Date":808,"Raid_LocationSwedes":"Hedeby","Country":"Germany","Source":"Swedes","Notes":"Settlement; Schleswig","Place_Type":"City","700_Century":800,"800_Century":"TRUE","900_Century":"FALSE","1000_Century":"FALSE"},"geometry":{"type":"Point","coordinates":[9.5632,54.5239]}},{"type":"Feature","properties":{"ID":6,"Date":850,"Raid_LocationSwedes":"Seeburg","Country":"Germany","Source":"Swedes","Notes":"","Place_Type":"City","700_Century":800,"800_Century":"TRUE","900_Century":"FALSE","1000_Century":"FALSE"},"geometry":{"type":"Point","coordinates":[11.6993,51.4885]}},{"type":"Feature","properties":{"ID":7,"Date":850,"Raid_LocationSwedes":"Apulia","Country":"Italy","Source":"Swedes","Notes":"","Place_Type":"City","700_Century":800,"800_Century":"TRUE","900_Century":"FALSE","1000_Century":"FALSE"},"geometry":{"type":"Point","coordinates":[17.1012,40.7928]}},{"type":"Feature","properties":{"ID":8,"Date":850,"Raid_LocationSwedes":"Beloozero","Country":"Russia","Source":"Swedes","Notes":"Belozersk; Settlement","Place_Type":"City","700_Century":800,"800_Century":"TRUE","900_Century":"FALSE","1000_Century":"FALSE"},"geometry":{"type":"Point","coordinates":[37.8057,60.0299]}},{"type":"Feature","properties":{"ID":9,"Date":861,"Raid_LocationSwedes":"Navarre","Country":"Spain","Source":"Swedes","Notes":"","Place_Type":"Region","700_Century":800,"800_Century":"TRUE","900_Century":"FALSE","1000_Century":"FALSE"},"geometry":{"type":"Point","coordinates":[-1.6761,42.6954]}},{"type":"Feature","properties":{"ID":10,"Date":861,"Raid_LocationSwedes":"Valence","Country":"France","Source":"Swedes","Notes":"","Place_Type":"City","700_Century":800,"800_Century":"TRUE","900_Century":"FALSE","1000_Century":"FALSE"},"geometry":{"type":"Point","coordinates":[4.8924,44.9334]}},{"type":"Feature","properties":{"ID":11,"Date":861,"Raid_LocationSwedes":"Pamplona","Country":"Spain","Source":"Swedes","Notes":"","Place_Type":"City","700_Century":800,"800_Century":"TRUE","900_Century":"FALSE","1000_Century":"FALSE"},"geometry":{"type":"Point","coordinates":[-1.6458,42.8125]}},{"type":"Feature","properties":{"ID":12,"Date":861,"Raid_LocationSwedes":"Algeciras","Country":"Spain","Source":"Swedes","Notes":"","Place_Type":"City","700_Century":800,"800_Century":"TRUE","900_Century":"FALSE","1000_Century":"FALSE"},"geometry":{"type":"Point","coordinates":[-5.4562,36.1408]}},{"type":"Feature","properties":{"ID":13,"Date":861,"Raid_LocationSwedes":"Nîmes","Country":"France","Source":"Swedes","Notes":"","Place_Type":"City","700_Century":800,"800_Century":"TRUE","900_Century":"FALSE","1000_Century":"FALSE"},"geometry":{"type":"Point","coordinates":[4.3601,43.8367]}},{"type":"Feature","properties":{"ID":14,"Date":861,"Raid_LocationSwedes":"Balearic Islands","Country":"Spain","Source":"Swedes","Notes":"","Place_Type":"City","700_Century":800,"800_Century":"TRUE","900_Century":"FALSE","1000_Century":"FALSE"},"geometry":{"type":"Point","coordinates":[3.0176,39.6953]}},{"type":"Feature","properties":{"ID":15,"Date":861,"Raid_LocationSwedes":"Murcia","Country":"Spain","Source":"Swedes","Notes":"","Place_Type":"City","700_Century":800,"800_Century":"TRUE","900_Century":"FALSE","1000_Century":"FALSE"},"geometry":{"type":"Point","coordinates":[-1.1307,37.9922]}},{"type":"Feature","properties":{"ID":16,"Date":861,"Raid_LocationSwedes":"Roussillon","Country":"France","Source":"Swedes","Notes":"","Place_Type":"City","700_Century":800,"800_Century":"TRUE","900_Century":"FALSE","1000_Century":"FALSE"},"geometry":{"type":"Point","coordinates":[5.2929,43.9023]}},{"type":"Feature","properties":{"ID":17,"Date":861,"Raid_LocationSwedes":"Narbonne","Country":"France","Source":"Swedes","Notes":"","Place_Type":"City","700_Century":800,"800_Century":"TRUE","900_Century":"FALSE","1000_Century":"FALSE"},"geometry":{"type":"Point","coordinates":[3.0031,43.1843]}},{"type":"Feature","properties":{"ID":18,"Date":861,"Raid_LocationSwedes":"Camargue","Country":"France","Source":"Swedes","Notes":"","Place_Type":"City","700_Century":800,"800_Century":"TRUE","900_Century":"FALSE","1000_Century":"FALSE"},"geometry":{"type":"Point","coordinates":[4.469,43.5939]}},{"type":"Feature","properties":{"ID":19,"Date":861,"Raid_LocationSwedes":"Côte d'Azur","Country":"France","Source":"Swedes","Notes":"French Riviera","Place_Type":"Coast","700_Century":800,"800_Century":"TRUE","900_Century":"FALSE","1000_Century":"FALSE"},"geometry":{"type":"Point","coordinates":[6.6379,43.2548]}},{"type":"Feature","properties":{"ID":20,"Date":861,"Raid_LocationSwedes":"Pisa","Country":"Italy","Source":"Swedes","Notes":"","Place_Type":"City","700_Century":800,"800_Century":"TRUE","900_Century":"FALSE","1000_Century":"FALSE"},"geometry":{"type":"Point","coordinates":[12.5674,41.8719]}},{"type":"Feature","properties":{"ID":21,"Date":861,"Raid_LocationSwedes":"Alexandria","Country":"Egypt","Source":"Swedes","Notes":"","Place_Type":"City","700_Century":800,"800_Century":"TRUE","900_Century":"FALSE","1000_Century":"FALSE"},"geometry":{"type":"Point","coordinates":[29.9187,31.2]}},{"type":"Feature","properties":{"ID":22,"Date":861,"Raid_LocationSwedes":"Luna","Country":"Italy","Source":"Swedes","Notes":"Near Rome","Place_Type":"City","700_Century":800,"800_Century":"TRUE","900_Century":"FALSE","1000_Century":"FALSE"},"geometry":{"type":"Point","coordinates":[12.4964,41.9028]}},{"type":"Feature","properties":{"ID":23,"Date":861,"Raid_LocationSwedes":"Arles","Country":"France","Source":"Swedes","Notes":"","Place_Type":"City","700_Century":800,"800_Century":"TRUE","900_Century":"FALSE","1000_Century":"FALSE"},"geometry":{"type":"Point","coordinates":[4.6278,43.6766]}},{"type":"Feature","properties":{"ID":24,"Date":862,"Raid_LocationSwedes":"Mazimma","Country":"Morocco","Source":"Swedes","Notes":"Al Hoceima","Place_Type":"City","700_Century":800,"800_Century":"TRUE","900_Century":"FALSE","1000_Century":"FALSE"},"geometry":{"type":"Point","coordinates":[-3.9317,35.2446]}},{"type":"Feature","properties":{"ID":25,"Date":862,"Raid_LocationSwedes":"Fiesole","Country":"Italy","Source":"Swedes","Notes":"","Place_Type":"City","700_Century":800,"800_Century":"TRUE","900_Century":"FALSE","1000_Century":"FALSE"},"geometry":{"type":"Point","coordinates":[11.2932,43.8065]}},{"type":"Feature","properties":{"ID":26,"Date":862,"Raid_LocationSwedes":"Valence","Country":"France","Source":"Swedes","Notes":"","Place_Type":"City","700_Century":800,"800_Century":"TRUE","900_Century":"FALSE","1000_Century":"FALSE"},"geometry":{"type":"Point","coordinates":[4.8924,44.9334]}},{"type":"Feature","properties":{"ID":27,"Date":870,"Raid_LocationSwedes":"Abasgun","Country":"Iran","Source":"Swedes","Notes":"Abaskun; approx. Babolsar","Place_Type":"City","700_Century":800,"800_Century":"TRUE","900_Century":"FALSE","1000_Century":"FALSE"},"geometry":{"type":"Point","coordinates":[52.6547,36.7049]}},{"type":"Feature","properties":{"ID":28,"Date":900,"Raid_LocationSwedes":"Gnyozdovo","Country":"Russia","Source":"Swedes","Notes":"Settlement; Gnezdovo","Place_Type":"City","700_Century":900,"800_Century":"FALSE","900_Century":"TRUE","1000_Century":"FALSE"},"geometry":{"type":"Point","coordinates":[31.8658,54.7848]}},{"type":"Feature","properties":{"ID":29,"Date":907,"Raid_LocationSwedes":"Constantinople","Country":"Turkey","Source":"Swedes","Notes":"","Place_Type":"City","700_Century":900,"800_Century":"FALSE","900_Century":"TRUE","1000_Century":"FALSE"},"geometry":{"type":"Point","coordinates":[28.9784,41.0082]}},{"type":"Feature","properties":{"ID":30,"Date":910,"Raid_LocationSwedes":"Abasgun","Country":"Iran","Source":"Swedes","Notes":"Abaskun; approx. Babolsar","Place_Type":"City","700_Century":900,"800_Century":"FALSE","900_Century":"TRUE","1000_Century":"FALSE"},"geometry":{"type":"Point","coordinates":[52.6547,36.7049]}},{"type":"Feature","properties":{"ID":31,"Date":912,"Raid_LocationSwedes":"Baku","Country":"Azerbaijan","Source":"Swedes","Notes":"","Place_Type":"City","700_Century":900,"800_Century":"FALSE","900_Century":"TRUE","1000_Century":"FALSE"},"geometry":{"type":"Point","coordinates":[49.8671,40.4093]}},{"type":"Feature","properties":{"ID":32,"Date":912,"Raid_LocationSwedes":"Abasgun","Country":"Iran","Source":"Swedes","Notes":"","Place_Type":"City","700_Century":900,"800_Century":"FALSE","900_Century":"TRUE","1000_Century":"FALSE"},"geometry":{"type":"Point","coordinates":[52.6547,36.7049]}},{"type":"Feature","properties":{"ID":33,"Date":920,"Raid_LocationSwedes":"Abaskun","Country":"Iran","Source":"Swedes","Notes":"Abaskun; approx. Babolsar","Place_Type":"City","700_Century":900,"800_Century":"FALSE","900_Century":"TRUE","1000_Century":"FALSE"},"geometry":{"type":"Point","coordinates":[54,37.0166]}},{"type":"Feature","properties":{"ID":34,"Date":920,"Raid_LocationSwedes":"Tabaristan","Country":"Iran","Source":"Swedes","Notes":"Sari","Place_Type":"City","700_Century":900,"800_Century":"FALSE","900_Century":"TRUE","1000_Century":"FALSE"},"geometry":{"type":"Point","coordinates":[53.0586,36.5659]}},{"type":"Feature","properties":{"ID":35,"Date":941,"Raid_LocationSwedes":"Constantinople","Country":"Turkey","Source":"Swedes","Notes":"","Place_Type":"City","700_Century":900,"800_Century":"FALSE","900_Century":"TRUE","1000_Century":"FALSE"},"geometry":{"type":"Point","coordinates":[28.9784,41.0082]}},{"type":"Feature","properties":{"ID":36,"Date":941,"Raid_LocationSwedes":"Heraclea","Country":"Turkey","Source":"Swedes","Notes":"","Place_Type":"City","700_Century":900,"800_Century":"FALSE","900_Century":"TRUE","1000_Century":"FALSE"},"geometry":{"type":"Point","coordinates":[27.9566,40.9691]}},{"type":"Feature","properties":{"ID":37,"Date":941,"Raid_LocationSwedes":"Nicomedia","Country":"Turkey","Source":"Swedes","Notes":"Nicodemia?","Place_Type":"City","700_Century":900,"800_Century":"FALSE","900_Century":"TRUE","1000_Century":"FALSE"},"geometry":{"type":"Point","coordinates":[29.9169,40.7669]}},{"type":"Feature","properties":{"ID":38,"Date":941,"Raid_LocationSwedes":"Baku","Country":"Azerbaijan","Source":"Swedes","Notes":"","Place_Type":"City","700_Century":900,"800_Century":"FALSE","900_Century":"TRUE","1000_Century":"FALSE"},"geometry":{"type":"Point","coordinates":[49.8671,40.4093]}},{"type":"Feature","properties":{"ID":39,"Date":945,"Raid_LocationSwedes":"Constantinople","Country":"Turkey","Source":"Swedes","Notes":"","Place_Type":"City","700_Century":900,"800_Century":"FALSE","900_Century":"TRUE","1000_Century":"FALSE"},"geometry":{"type":"Point","coordinates":[28.9784,41.0082]}},{"type":"Feature","properties":{"ID":40,"Date":960,"Raid_LocationSwedes":"Sigtuna","Country":"Sweden","Source":"Swedes","Notes":"Settlement","Place_Type":"City","700_Century":900,"800_Century":"FALSE","900_Century":"TRUE","1000_Century":"FALSE"},"geometry":{"type":"Point","coordinates":[17.7234,59.6191]}},{"type":"Feature","properties":{"ID":41,"Date":968,"Raid_LocationSwedes":"Atil","Country":"Russia","Source":"Swedes","Notes":"Khazar capital; unsure","Place_Type":"City","700_Century":900,"800_Century":"FALSE","900_Century":"TRUE","1000_Century":"FALSE"},"geometry":{"type":"Point","coordinates":[47.8386,46.0218]}},{"type":"Feature","properties":{"ID":42,"Date":1010,"Raid_LocationSwedes":"Norfolk","Country":"England","Source":"Swedes","Notes":"","Place_Type":"County","700_Century":1000,"800_Century":"FALSE","900_Century":"FALSE","1000_Century":"TRUE"},"geometry":{"type":"Point","coordinates":[0.8864,52.614]}}]}