{"type":"FeatureCollection","features":[{"type":"Feature","properties":{"Date":700,"Location":"Gotland","Country":"Sweden","Century":700,"Source":"Swedes","Notes":"Settlement","Location_Type":"Island"},"geometry":{"type":"Point","coordinates":[18.4867,57.4684]}},{"type":"Feature","properties":{"Date":780,"Location":"Birka","Country":"Sweden","Century":700,"Source":"Swedes","Notes":"Settlement; Björkö, Ekerö","Location_Type":"Island"},"geometry":{"type":"Point","coordinates":[17.5667,59.326]}},{"type":"Feature","properties":{"Date":800,"Location":"Staraja Ladoga","Country":"Russia","Century":800,"Source":"Swedes","Notes":"Settlement; Staraya Ladoga","Location_Type":"City"},"geometry":{"type":"Point","coordinates":[32.2926,60.0016]}},{"type":"Feature","properties":{"Date":800,"Location":"Novgorod","Country":"Russia","Century":800,"Source":"Swedes","Notes":"Settlement","Location_Type":"City"},"geometry":{"type":"Point","coordinates":[31.2742,58.5256]}},{"type":"Feature","properties":{"Date":808,"Location":"Hedeby","Country":"Germany","Century":800,"Source":"Swedes","Notes":"Settlement; Schleswig","Location_Type":"City"},"geometry":{"type":"Point","coordinates":[9.5632,54.5239]}},{"type":"Feature","properties":{"Date":850,"Location":"Seeburg","Country":"Germany","Century":800,"Source":"Swedes","Notes":"","Location_Type":"City"},"geometry":{"type":"Point","coordinates":[11.6993,51.4885]}},{"type":"Feature","properties":{"Date":850,"Location":"Apulia","Country":"Italy","Century":800,"Source":"Swedes","Notes":"","Location_Type":"City"},"geometry":{"type":"Point","coordinates":[17.1012,40.7928]}},{"type":"Feature","properties":{"Date":850,"Location":"Beloozero","Country":"Russia","Century":800,"Source":"Swedes","Notes":"Belozersk; Settlement","Location_Type":"City"},"geometry":{"type":"Point","coordinates":[37.8057,60.0299]}},{"type":"Feature","properties":{"Date":861,"Location":"Navarre","Country":"Spain","Century":800,"Source":"Swedes","Notes":"","Location_Type":"Region"},"geometry":{"type":"Point","coordinates":[-1.6761,42.6954]}},{"type":"Feature","properties":{"Date":861,"Location":"Valence","Country":"France","Century":800,"Source":"Swedes","Notes":"","Location_Type":"City"},"geometry":{"type":"Point","coordinates":[4.8924,44.9334]}},{"type":"Feature","properties":{"Date":861,"Location":"Pamplona","Country":"Spain","Century":800,"Source":"Swedes","Notes":"","Location_Type":"City"},"geometry":{"type":"Point","coordinates":[-1.6458,42.8125]}},{"type":"Feature","properties":{"Date":861,"Location":"Algeciras","Country":"Spain","Century":800,"Source":"Swedes","Notes":"","Location_Type":"City"},"geometry":{"type":"Point","coordinates":[-5.4562,36.1408]}},{"type":"Feature","properties":{"Date":861,"Location":"Nîmes","Country":"France","Century":800,"Source":"Swedes","Notes":"","Location_Type":"City"},"geometry":{"type":"Point","coordinates":[4.3601,43.8367]}},{"type":"Feature","properties":{"Date":861,"Location":"Balearic Islands","Country":"Spain","Century":800,"Source":"Swedes","Notes":"","Location_Type":"City"},"geometry":{"type":"Point","coordinates":[3.0176,39.6953]}},{"type":"Feature","properties":{"Date":861,"Location":"Murcia","Country":"Spain","Century":800,"Source":"Swedes","Notes":"","Location_Type":"City"},"geometry":{"type":"Point","coordinates":[-1.1307,37.9922]}},{"type":"Feature","properties":{"Date":861,"Location":"Roussillon","Country":"France","Century":800,"Source":"Swedes","Notes":"","Location_Type":"City"},"geometry":{"type":"Point","coordinates":[5.2929,43.9023]}},{"type":"Feature","properties":{"Date":861,"Location":"Narbonne","Country":"France","Century":800,"Source":"Swedes","Notes":"","Location_Type":"City"},"geometry":{"type":"Point","coordinates":[3.0031,43.1843]}},{"type":"Feature","properties":{"Date":861,"Location":"Camargue","Country":"France","Century":800,"Source":"Swedes","Notes":"","Location_Type":"City"},"geometry":{"type":"Point","coordinates":[4.469,43.5939]}},{"type":"Feature","properties":{"Date":861,"Location":"Côte d'Azur","Country":"France","Century":800,"Source":"Swedes","Notes":"French Riviera","Location_Type":"Coast"},"geometry":{"type":"Point","coordinates":[6.6379,43.2548]}},{"type":"Feature","properties":{"Date":861,"Location":"Pisa","Country":"Italy","Century":800,"Source":"Swedes","Notes":"","Location_Type":"City"},"geometry":{"type":"Point","coordinates":[12.5674,41.8719]}},{"type":"Feature","properties":{"Date":861,"Location":"Alexandria","Country":"Egypt","Century":800,"Source":"Swedes","Notes":"","Location_Type":"City"},"geometry":{"type":"Point","coordinates":[29.9187,31.2]}},{"type":"Feature","properties":{"Date":861,"Location":"Luna","Country":"Italy","Century":800,"Source":"Swedes","Notes":"Near Rome","Location_Type":"City"},"geometry":{"type":"Point","coordinates":[12.4964,41.9028]}},{"type":"Feature","properties":{"Date":861,"Location":"Arles","Country":"France","Century":800,"Source":"Swedes","Notes":"","Location_Type":"City"},"geometry":{"type":"Point","coordinates":[4.6278,43.6766]}},{"type":"Feature","properties":{"Date":862,"Location":"Mazimma","Country":"Morocco","Century":800,"Source":"Swedes","Notes":"Al Hoceima","Location_Type":"City"},"geometry":{"type":"Point","coordinates":[-3.9317,35.2446]}},{"type":"Feature","properties":{"Date":862,"Location":"Fiesole","Country":"Ireland","Century":800,"Source":"Swedes","Notes":"","Location_Type":"City"},"geometry":{"type":"Point","coordinates":[11.2932,43.8065]}},{"type":"Feature","properties":{"Date":862,"Location":"Valence","Country":"France","Century":800,"Source":"Swedes","Notes":"","Location_Type":"City"},"geometry":{"type":"Point","coordinates":[4.8924,44.9334]}},{"type":"Feature","properties":{"Date":870,"Location":"Abasgun","Country":"Iran","Century":800,"Source":"Swedes","Notes":"Abaskun; approx. Babolsar","Location_Type":"City"},"geometry":{"type":"Point","coordinates":[52.6547,36.7049]}},{"type":"Feature","properties":{"Date":900,"Location":"Gnyozdovo","Country":"Russia","Century":900,"Source":"Swedes","Notes":"Settlement; Gnezdovo","Location_Type":"City"},"geometry":{"type":"Point","coordinates":[31.8658,54.7848]}},{"type":"Feature","properties":{"Date":907,"Location":"Constantinople","Country":"Turkey","Century":900,"Source":"Swedes","Notes":"","Location_Type":"City"},"geometry":{"type":"Point","coordinates":[28.9784,41.0082]}},{"type":"Feature","properties":{"Date":910,"Location":"Abasgun","Country":"Iran","Century":900,"Source":"Swedes","Notes":"Abaskun; approx. Babolsar","Location_Type":"City"},"geometry":{"type":"Point","coordinates":[52.6547,36.7049]}},{"type":"Feature","properties":{"Date":912,"Location":"Baku","Country":"Azerbaijan","Century":900,"Source":"Swedes","Notes":"","Location_Type":"City"},"geometry":{"type":"Point","coordinates":[49.8671,40.4093]}},{"type":"Feature","properties":{"Date":912,"Location":"Abasgun","Country":"Iran","Century":900,"Source":"Swedes","Notes":"","Location_Type":"City"},"geometry":{"type":"Point","coordinates":[52.6547,36.7049]}},{"type":"Feature","properties":{"Date":920,"Location":"Abaskun","Country":"Iran","Century":900,"Source":"Swedes","Notes":"Abaskun; approx. Babolsar","Location_Type":"City"},"geometry":{"type":"Point","coordinates":[54,37.0166]}},{"type":"Feature","properties":{"Date":920,"Location":"Tabaristan","Country":"Iran","Century":900,"Source":"Swedes","Notes":"Sari","Location_Type":"City"},"geometry":{"type":"Point","coordinates":[53.0586,36.5659]}},{"type":"Feature","properties":{"Date":941,"Location":"Constantinople","Country":"Turkey","Century":900,"Source":"Swedes","Notes":"","Location_Type":"City"},"geometry":{"type":"Point","coordinates":[28.9784,41.0082]}},{"type":"Feature","properties":{"Date":941,"Location":"Heraclea","Country":"Turkey","Century":900,"Source":"Swedes","Notes":"","Location_Type":"City"},"geometry":{"type":"Point","coordinates":[27.9566,40.9691]}},{"type":"Feature","properties":{"Date":941,"Location":"Nicomedia","Country":"Turkey","Century":900,"Source":"Swedes","Notes":"Nicodemia?","Location_Type":"City"},"geometry":{"type":"Point","coordinates":[29.9169,40.7669]}},{"type":"Feature","properties":{"Date":941,"Location":"Baku","Country":"Azerbaijan","Century":900,"Source":"Swedes","Notes":"","Location_Type":"City"},"geometry":{"type":"Point","coordinates":[49.8671,40.4093]}},{"type":"Feature","properties":{"Date":945,"Location":"Constantinople","Country":"Turkey","Century":900,"Source":"Swedes","Notes":"","Location_Type":"City"},"geometry":{"type":"Point","coordinates":[28.9784,41.0082]}},{"type":"Feature","properties":{"Date":960,"Location":"Sigtuna","Country":"Sweden","Century":900,"Source":"Swedes","Notes":"Settlement","Location_Type":"City"},"geometry":{"type":"Point","coordinates":[17.7234,59.6191]}},{"type":"Feature","properties":{"Date":968,"Location":"Atil","Country":"Russia","Century":900,"Source":"Swedes","Notes":"Khazar capital; unsure","Location_Type":"City"},"geometry":{"type":"Point","coordinates":[47.8386,46.0218]}},{"type":"Feature","properties":{"Date":1010,"Location":"Norfolk","Country":"England","Century":1000,"Source":"Swedes","Notes":"","Location_Type":"County"},"geometry":{"type":"Point","coordinates":[0.8864,52.614]}}]}